var restaurant500 = {
"type": "FeatureCollection",
                                                                                
"features": [




{ "type": "Feature", "id": 388 , "properties": { "gid": 388, "___idobj": 3.0, "name": "فندق الطیبة",				"theme": 1.0, "libtheme": "CULTURE", "categorie": 106.0}, "geometry": { "type": "Point", "coordinates": [ 44.3418 , 33.373498]}},
{ "type": "Feature", "id": 388 , "properties": { "gid": 388, "___idobj": 3.0, "name": "فندق العکیدی",				"theme": 1.0, "libtheme": "CULTURE", "categorie": 106.0}, "geometry": { "type": "Point", "coordinates": [ 44.339195 , 33.372755]}},
{ "type": "Feature", "id": 388 , "properties": { "gid": 388, "___idobj": 3.0, "name": "فندق الکاظمیة",				"theme": 1.0, "libtheme": "CULTURE", "categorie": 106.0}, "geometry": { "type": "Point", "coordinates": [ 44.328904 , 33.385314]}},
{ "type": "Feature", "id": 388 , "properties": { "gid": 388, "___idobj": 3.0, "name": "فندق البحیرة",				"theme": 1.0, "libtheme": "CULTURE", "categorie": 106.0}, "geometry": { "type": "Point", "coordinates": [ 43.867202 , 34.205154]}},

{ "type": "Feature", "id": 388 , "properties": { "gid": 388, "___idobj": 3.0, "name": "سدرة المنتهی",				"theme": 1.0, "libtheme": "CULTURE", "categorie": 106.0}, "geometry": { "type": "Point", "coordinates": [	44.0339335, 32.62020696]}},
{ "type": "Feature", "id": 389 , "properties": { "gid": 389, "___idobj": 3.0, "name": "شفاعة الحسین",				"theme": 1.0, "libtheme": "CULTURE", "categorie": 106.0}, "geometry": { "type": "Point", "coordinates": [	44.0425803, 32.62028541]}},
{ "type": "Feature", "id": 390 , "properties": { "gid": 390, "___idobj": 3.0, "name": "الشرق الاوسط",				"theme": 1.0, "libtheme": "CULTURE", "categorie": 106.0}, "geometry": { "type": "Point", "coordinates": [	44.0403706, 32.61908831]}},
{ "type": "Feature", "id": 391 , "properties": { "gid": 391, "___idobj": 3.0, "name": "الشرق",				"theme": 1.0, "libtheme": "CULTURE", "categorie": 106.0}, "geometry": { "type": "Point", "coordinates": [	44.0336993, 32.61733674]}},
{ "type": "Feature", "id": 392 , "properties": { "gid": 392, "___idobj": 3.0, "name": "شط الفرات",				"theme": 1.0, "libtheme": "CULTURE", "categorie": 106.0}, "geometry": { "type": "Point", "coordinates": [	44.0375685, 32.61874951]}},
{ "type": "Feature", "id": 393 , "properties": { "gid": 393, "___idobj": 3.0, "name": "تبارک الرحمن",				"theme": 1.0, "libtheme": "CULTURE", "categorie": 106.0}, "geometry": { "type": "Point", "coordinates": [	44.0295674, 32.61642119]}},
{ "type": "Feature", "id": 394 , "properties": { "gid": 394, "___idobj": 3.0, "name": "الطفوف",				"theme": 1.0, "libtheme": "CULTURE", "categorie": 106.0}, "geometry": { "type": "Point", "coordinates": [	44.0377665, 32.61911731]}},
{ "type": "Feature", "id": 395 , "properties": { "gid": 395, "___idobj": 3.0, "name": "تراث",				"theme": 1.0, "libtheme": "CULTURE", "categorie": 106.0}, "geometry": { "type": "Point", "coordinates": [	44.0420282, 32.6190433]}},
{ "type": "Feature", "id": 396 , "properties": { "gid": 396, "___idobj": 3.0, "name": "وفه العباس",				"theme": 1.0, "libtheme": "CULTURE", "categorie": 106.0}, "geometry": { "type": "Point", "coordinates": [	44.0330611, 32.61078042]}},
{ "type": "Feature", "id": 397 , "properties": { "gid": 397, "___idobj": 3.0, "name": "واحة الخیرات",				"theme": 1.0, "libtheme": "CULTURE", "categorie": 106.0}, "geometry": { "type": "Point", "coordinates": [	44.0400189, 32.61686811]}},
{ "type": "Feature", "id": 398 , "properties": { "gid": 398, "___idobj": 3.0, "name": "الولی",				"theme": 1.0, "libtheme": "CULTURE", "categorie": 106.0}, "geometry": { "type": "Point", "coordinates": [	44.0326943, 32.6246109]}},
{ "type": "Feature", "id": 399 , "properties": { "gid": 399, "___idobj": 3.0, "name": "ولی العصر",				"theme": 1.0, "libtheme": "CULTURE", "categorie": 106.0}, "geometry": { "type": "Point", "coordinates": [	44.0423337, 32.61924908]}},
{ "type": "Feature", "id": 400 , "properties": { "gid": 400, "___idobj": 3.0, "name": "ولید",				"theme": 1.0, "libtheme": "CULTURE", "categorie": 106.0}, "geometry": { "type": "Point", "coordinates": [	44.0373250, 32.62020134]}},
{ "type": "Feature", "id": 401 , "properties": { "gid": 401, "___idobj": 3.0, "name": "ینابیع کربلاء",				"theme": 1.0, "libtheme": "CULTURE", "categorie": 106.0}, "geometry": { "type": "Point", "coordinates": [	44.0423507, 32.61231582]}},
{ "type": "Feature", "id": 402 , "properties": { "gid": 402, "___idobj": 3.0, "name": "الیاسمین",				"theme": 1.0, "libtheme": "CULTURE", "categorie": 106.0}, "geometry": { "type": "Point", "coordinates": [	44.0295127, 32.61079031]}},
{ "type": "Feature", "id": 403 , "properties": { "gid": 403, "___idobj": 3.0, "name": "الموسوی",				"theme": 1.0, "libtheme": "CULTURE", "categorie": 106.0}, "geometry": { "type": "Point", "coordinates": [	44.0321016, 32.62093518]}},
{ "type": "Feature", "id": 404 , "properties": { "gid": 404, "___idobj": 3.0, "name": "زائر ابو الفضل",				"theme": 1.0, "libtheme": "CULTURE", "categorie": 106.0}, "geometry": { "type": "Point", "coordinates": [	44.0361063, 32.6156835]}},
{ "type": "Feature", "id": 405 , "properties": { "gid": 405, "___idobj": 3.0, "name": "زائر الحسین",				"theme": 1.0, "libtheme": "CULTURE", "categorie": 106.0}, "geometry": { "type": "Point", "coordinates": [	44.0355326, 32.61306172]}},
{ "type": "Feature", "id": 406 , "properties": { "gid": 406, "___idobj": 3.0, "name": "الضفاف",				"theme": 1.0, "libtheme": "CULTURE", "categorie": 106.0}, "geometry": { "type": "Point", "coordinates": [	44.0397949, 32.62132913]}},
{ "type": "Feature", "id": 407 , "properties": { "gid": 407, "___idobj": 3.0, "name": "زمزم",				"theme": 1.0, "libtheme": "CULTURE", "categorie": 106.0}, "geometry": { "type": "Point", "coordinates": [	44.0369028, 32.61296994]}},
{ "type": "Feature", "id": 408 , "properties": { "gid": 408, "___idobj": 3.0, "name": "زمرود",				"theme": 1.0, "libtheme": "CULTURE", "categorie": 106.0}, "geometry": { "type": "Point", "coordinates": [	44.0342049, 32.61255403]}},
{ "type": "Feature", "id": 409 , "properties": { "gid": 409, "___idobj": 3.0, "name": "ضیف الامیر",				"theme": 1.0, "libtheme": "CULTURE", "categorie": 106.0}, "geometry": { "type": "Point", "coordinates": [	44.0332651, 32.61386245]}},
{ "type": "Feature", "id": 410 , "properties": { "gid": 410, "___idobj": 3.0, "name": "ضیف ام البنین",				"theme": 1.0, "libtheme": "CULTURE", "categorie": 106.0}, "geometry": { "type": "Point", "coordinates": [	44.034318, 32.62091087]}},
{ "type": "Feature", "id": 411 , "properties": { "gid": 411, "___idobj": 3.0, "name": "ضیف الباقر",				"theme": 1.0, "libtheme": "CULTURE", "categorie": 106.0}, "geometry": { "type": "Point", "coordinates": [	44.0434975, 32.63270555]}},
{ "type": "Feature", "id": 412 , "properties": { "gid": 412, "___idobj": 3.0, "name": "ضیف الحسین",				"theme": 1.0, "libtheme": "CULTURE", "categorie": 106.0}, "geometry": { "type": "Point", "coordinates": [	44.0217904, 32.6038589]}},
{ "type": "Feature", "id": 413 , "properties": { "gid": 413, "___idobj": 3.0, "name": "ضیف الزهراء",				"theme": 1.0, "libtheme": "CULTURE", "categorie": 106.0}, "geometry": { "type": "Point", "coordinates": [	44.0361590, 32.61574293]}},
{ "type": "Feature", "id": 414 , "properties": { "gid": 414, "___idobj": 3.0, "name": "ضیوف الرحمن",				"theme": 1.0, "libtheme": "CULTURE", "categorie": 106.0}, "geometry": { "type": "Point", "coordinates": [	44.0311004, 32.6104754]}},
{ "type": "Feature", "id": 415 , "properties": { "gid": 415, "___idobj": 3.0, "name": "6",				"theme": 1.0, "libtheme": "CULTURE", "categorie": 106.0 }, "geometry": { "type": "Point", "coordinates": [	44.3193396, 31.99494079]}},
{ "type": "Feature", "id": 416 , "properties": { "gid": 416, "___idobj": 3.0, "name": "6",				"theme": 1.0, "libtheme": "CULTURE", "categorie": 106.0 }, "geometry": { "type": "Point", "coordinates": [	44.3197104, 31.9944538]}},
{ "type": "Feature", "id": 417 , "properties": { "gid": 417, "___idobj": 3.0, "name": "ابو طالب",				"theme": 1.0, "libtheme": "CULTURE", "categorie": 106.0}, "geometry": { "type": "Point", "coordinates": [	44.3158310, 31.99336859]}},
{ "type": "Feature", "id": 418 , "properties": { "gid": 418, "___idobj": 3.0, "name": "اباذر",				"theme": 1.0, "libtheme": "CULTURE", "categorie": 106.0}, "geometry": { "type": "Point", "coordinates": [	44.3153606, 31.99330933]}},
{ "type": "Feature", "id": 419 , "properties": { "gid": 419, "___idobj": 3.0, "name": "ابرار",				"theme": 1.0, "libtheme": "CULTURE", "categorie": 106.0}, "geometry": { "type": "Point", "coordinates": [	44.3183941, 31.99525863]}},
{ "type": "Feature", "id": 420 , "properties": { "gid": 420, "___idobj": 3.0, "name": "ادم",				"theme": 1.0, "libtheme": "CULTURE", "categorie": 106.0}, "geometry": { "type": "Point", "coordinates": [	44.3157318, 31.99370856]}},
{ "type": "Feature", "id": 421 , "properties": { "gid": 421, "___idobj": 3.0, "name": "الاکرمین",				"theme": 1.0, "libtheme": "CULTURE", "categorie": 106.0}, "geometry": { "type": "Point", "coordinates": [	44.3912915, 32.02536944]}},
{ "type": "Feature", "id": 422 , "properties": { "gid": 422, "___idobj": 3.0, "name": "الرجاء",				"theme": 1.0, "libtheme": "CULTURE", "categorie": 106.0}, "geometry": { "type": "Point", "coordinates": [	44.3705032, 32.00569075]}},
{ "type": "Feature", "id": 423 , "properties": { "gid": 423, "___idobj": 3.0, "name": "المحمد",				"theme": 1.0, "libtheme": "CULTURE", "categorie": 106.0}, "geometry": { "type": "Point", "coordinates": [	44.327523, 31.99690651]}},
{ "type": "Feature", "id": 424 , "properties": { "gid": 424, "___idobj": 3.0, "name": "المنی",				"theme": 1.0, "libtheme": "CULTURE", "categorie": 106.0}, "geometry": { "type": "Point", "coordinates": [	44.3274230, 32.00897436]}},
{ "type": "Feature", "id": 425 , "properties": { "gid": 425, "___idobj": 3.0, "name": "علم دار",				"theme": 1.0, "libtheme": "CULTURE", "categorie": 106.0}, "geometry": { "type": "Point", "coordinates": [	44.3126336, 31.99820294]}},
{ "type": "Feature", "id": 426 , "properties": { "gid": 426, "___idobj": 3.0, "name": "الغدیر",				"theme": 1.0, "libtheme": "CULTURE", "categorie": 106.0}, "geometry": { "type": "Point", "coordinates": [	44.3151279, 31.99768108]}},
{ "type": "Feature", "id": 427 , "properties": { "gid": 427, "___idobj": 3.0, "name": "الغری",				"theme": 1.0, "libtheme": "CULTURE", "categorie": 106.0}, "geometry": { "type": "Point", "coordinates": [	44.3185661, 31.99769374]}},
{ "type": "Feature", "id": 428 , "properties": { "gid": 428, "___idobj": 3.0, "name": "الهدی",				"theme": 1.0, "libtheme": "CULTURE", "categorie": 106.0}, "geometry": { "type": "Point", "coordinates": [	44.3152498, 31.99183647]}},
{ "type": "Feature", "id": 429 , "properties": { "gid": 429, "___idobj": 3.0, "name": "الحریم",				"theme": 1.0, "libtheme": "CULTURE", "categorie": 106.0}, "geometry": { "type": "Point", "coordinates": [	44.329092, 31.99406421]}},
{ "type": "Feature", "id": 430 , "properties": { "gid": 430, "___idobj": 3.0, "name": "المشرعة",				"theme": 1.0, "libtheme": "CULTURE", "categorie": 106.0}, "geometry": { "type": "Point", "coordinates": [	44.323548, 31.99245748]}},
{ "type": "Feature", "id": 431 , "properties": { "gid": 431, "___idobj": 3.0, "name": "المطار",				"theme": 1.0, "libtheme": "CULTURE", "categorie": 106.0}, "geometry": { "type": "Point", "coordinates": [	44.3947348, 32.02463963]}},
{ "type": "Feature", "id": 432 , "properties": { "gid": 432, "___idobj": 3.0, "name": "الامین",				"theme": 1.0, "libtheme": "CULTURE", "categorie": 106.0}, "geometry": { "type": "Point", "coordinates": [	44.3161213, 31.9966543]}},
{ "type": "Feature", "id": 433 , "properties": { "gid": 433, "___idobj": 3.0, "name": "انوار البهاء",				"theme": 1.0, "libtheme": "CULTURE", "categorie": 106.0}, "geometry": { "type": "Point", "coordinates": [	44.3216459, 31.99224374]}},
{ "type": "Feature", "id": 434 , "properties": { "gid": 434, "___idobj": 3.0, "name": "انوار المشهدی",				"theme": 1.0, "libtheme": "CULTURE", "categorie": 106.0}, "geometry": { "type": "Point", "coordinates": [	44.3098546, 31.99678539]}},
{ "type": "Feature", "id": 435 , "properties": { "gid": 435, "___idobj": 3.0, "name": "انوار الصادق",				"theme": 1.0, "libtheme": "CULTURE", "categorie": 106.0}, "geometry": { "type": "Point", "coordinates": [	44.3193753, 31.99336004]}},
{ "type": "Feature", "id": 436 , "properties": { "gid": 436, "___idobj": 3.0, "name": "ارض المقدسة",				"theme": 1.0, "libtheme": "CULTURE", "categorie": 106.0}, "geometry": { "type": "Point", "coordinates": [	44.3316324, 32.00434755]}},
{ "type": "Feature", "id": 437 , "properties": { "gid": 437, "___idobj": 3.0, "name": "اسد الدوحة",				"theme": 1.0, "libtheme": "CULTURE", "categorie": 106.0}, "geometry": { "type": "Point", "coordinates": [	44.3188512, 31.9955276]}},
{ "type": "Feature", "id": 438 , "properties": { "gid": 438, "___idobj": 3.0, "name": "سما الشفاعة",				"theme": 1.0, "libtheme": "CULTURE", "categorie": 106.0}, "geometry": { "type": "Point", "coordinates": [	44.3220221, 31.99028607]}},
{ "type": "Feature", "id": 439 , "properties": { "gid": 439, "___idobj": 3.0, "name": "الاطلس",				"theme": 1.0, "libtheme": "CULTURE", "categorie": 106.0}, "geometry": { "type": "Point", "coordinates": [	44.3668613, 32.00376433]}},
{ "type": "Feature", "id": 440 , "properties": { "gid": 440, "___idobj": 3.0, "name": "الباقر",				"theme": 1.0, "libtheme": "CULTURE", "categorie": 106.0}, "geometry": { "type": "Point", "coordinates": [	44.3227160, 31.99420025]}},
{ "type": "Feature", "id": 441 , "properties": { "gid": 441, "___idobj": 3.0, "name": "بحر النجف",				"theme": 1.0, "libtheme": "CULTURE", "categorie": 106.0}, "geometry": { "type": "Point", "coordinates": [	44.3444800, 32.00581807]}},
{ "type": "Feature", "id": 442 , "properties": { "gid": 442, "___idobj": 3.0, "name": "برکات العباس",				"theme": 1.0, "libtheme": "CULTURE", "categorie": 106.0}, "geometry": { "type": "Point", "coordinates": [	44.3108017, 31.99462898]}},
{ "type": "Feature", "id": 443 , "properties": { "gid": 443, "___idobj": 3.0, "name": "برکات الکریم",				"theme": 1.0, "libtheme": "CULTURE", "categorie": 106.0}, "geometry": { "type": "Point", "coordinates": [	44.3612537, 32.01155833]}},
{ "type": "Feature", "id": 444 , "properties": { "gid": 444, "___idobj": 3.0, "name": "برکات المرتضی",				"theme": 1.0, "libtheme": "CULTURE", "categorie": 106.0}, "geometry": { "type": "Point", "coordinates": [	44.3188402, 31.99545166]}},
{ "type": "Feature", "id": 445 , "properties": { "gid": 445, "___idobj": 3.0, "name": "برکات ام البنین",				"theme": 1.0, "libtheme": "CULTURE", "categorie": 106.0}, "geometry": { "type": "Point", "coordinates": [	44.3147277, 31.99392473]}},
{ "type": "Feature", "id": 446 , "properties": { "gid": 446, "___idobj": 3.0, "name": "بیت البرکة",				"theme": 1.0, "libtheme": "CULTURE", "categorie": 106.0}, "geometry": { "type": "Point", "coordinates": [	44.3111653, 31.99708957]}},
{ "type": "Feature", "id": 447 , "properties": { "gid": 447, "___idobj": 3.0, "name": "البلدان",				"theme": 1.0, "libtheme": "CULTURE", "categorie": 106.0}, "geometry": { "type": "Point", "coordinates": [	44.3099002, 31.99662672]}},
{ "type": "Feature", "id": 448 , "properties": { "gid": 448, "___idobj": 3.0, "name": "براثا",				"theme": 1.0, "libtheme": "CULTURE", "categorie": 106.0}, "geometry": { "type": "Point", "coordinates": [	44.3126254, 31.99825918]}},
{ "type": "Feature", "id": 449 , "properties": { "gid": 449, "___idobj": 3.0, "name": "البرهان",				"theme": 1.0, "libtheme": "CULTURE", "categorie": 106.0}, "geometry": { "type": "Point", "coordinates": [	44.3212266, 31.98932206]}},
{ "type": "Feature", "id": 450 , "properties": { "gid": 450, "___idobj": 3.0, "name": "برج المنار",				"theme": 1.0, "libtheme": "CULTURE", "categorie": 106.0}, "geometry": { "type": "Point", "coordinates": [	44.3229511, 31.99153706]}},
{ "type": "Feature", "id": 451 , "properties": { "gid": 451, "___idobj": 3.0, "name": "برج النجف",				"theme": 1.0, "libtheme": "CULTURE", "categorie": 106.0}, "geometry": { "type": "Point", "coordinates": [	44.3181269, 31.99767396]}},
{ "type": "Feature", "id": 452 , "properties": { "gid": 452, "___idobj": 3.0, "name": "برج الامارة",				"theme": 1.0, "libtheme": "CULTURE", "categorie": 106.0}, "geometry": { "type": "Point", "coordinates": [	44.3189574, 31.99625356]}},
{ "type": "Feature", "id": 453 , "properties": { "gid": 453, "___idobj": 3.0, "name": "دار الرحمة",				"theme": 1.0, "libtheme": "CULTURE", "categorie": 106.0}, "geometry": { "type": "Point", "coordinates": [	44.3179541, 31.99252546]}},
{ "type": "Feature", "id": 454 , "properties": { "gid": 454, "___idobj": 3.0, "name": "دار بلال",				"theme": 1.0, "libtheme": "CULTURE", "categorie": 106.0}, "geometry": { "type": "Point", "coordinates": [	44.3110734, 31.99669177]}},
{ "type": "Feature", "id": 455 , "properties": { "gid": 455, "___idobj": 3.0, "name": "دار الهدی",				"theme": 1.0, "libtheme": "CULTURE", "categorie": 106.0}, "geometry": { "type": "Point", "coordinates": [	44.331393, 31.99989969]}},
{ "type": "Feature", "id": 456 , "properties": { "gid": 456, "___idobj": 3.0, "name": "دار الحرة",				"theme": 1.0, "libtheme": "CULTURE", "categorie": 106.0}, "geometry": { "type": "Point", "coordinates": [	44.3121176, 31.99629916]}},
{ "type": "Feature", "id": 457 , "properties": { "gid": 457, "___idobj": 3.0, "name": "دار السلام",				"theme": 1.0, "libtheme": "CULTURE", "categorie": 106.0}, "geometry": { "type": "Point", "coordinates": [	44.3194247, 31.99741965]}},
{ "type": "Feature", "id": 458 , "properties": { "gid": 458, "___idobj": 3.0, "name": "دوحة",				"theme": 1.0, "libtheme": "CULTURE", "categorie": 106.0}, "geometry": { "type": "Point", "coordinates": [	44.3226955, 31.99658683]}},
{ "type": "Feature", "id": 459 , "properties": { "gid": 459, "___idobj": 3.0, "name": "دار النجف",				"theme": 1.0, "libtheme": "CULTURE", "categorie": 106.0}, "geometry": { "type": "Point", "coordinates": [	44.3337780, 32.00176835]}},
{ "type": "Feature", "id": 460 , "properties": { "gid": 460, "___idobj": 3.0, "name": "دار الندی",				"theme": 1.0, "libtheme": "CULTURE", "categorie": 106.0}, "geometry": { "type": "Point", "coordinates": [	44.3225351, 31.99703601]}},
{ "type": "Feature", "id": 461 , "properties": { "gid": 461, "___idobj": 3.0, "name": "درر",				"theme": 1.0, "libtheme": "CULTURE", "categorie": 106.0}, "geometry": { "type": "Point", "coordinates": [	44.3182636, 31.99284447]}},
{ "type": "Feature", "id": 462 , "properties": { "gid": 462, "___idobj": 3.0, "name": "دار السلام",				"theme": 1.0, "libtheme": "CULTURE", "categorie": 106.0}, "geometry": { "type": "Point", "coordinates": [	44.3836428, 32.02115536]}},
{ "type": "Feature", "id": 463 , "properties": { "gid": 463, "___idobj": 3.0, "name": "ابن الغزی",				"theme": 1.0, "libtheme": "CULTURE", "categorie": 106.0}, "geometry": { "type": "Point", "coordinates": [	44.3295450, 32.00388394]}},
{ "type": "Feature", "id": 464 , "properties": { "gid": 464, "___idobj": 3.0, "name": "الحیاة",				"theme": 1.0, "libtheme": "CULTURE", "categorie": 106.0}, "geometry": { "type": "Point", "coordinates": [	44.3336960, 31.995208]}},
{ "type": "Feature", "id": 465 , "properties": { "gid": 465, "___idobj": 3.0, "name": "السلسبیل",				"theme": 1.0, "libtheme": "CULTURE", "categorie": 106.0}, "geometry": { "type": "Point", "coordinates": [	44.3296402, 32.00418636]}},
{ "type": "Feature", "id": 466 , "properties": { "gid": 466, "___idobj": 3.0, "name": "عشتار",				"theme": 1.0, "libtheme": "CULTURE", "categorie": 106.0}, "geometry": { "type": "Point", "coordinates": [	44.3209089, 31.99039972]}},
{ "type": "Feature", "id": 467 , "properties": { "gid": 467, "___idobj": 3.0, "name": "الفرقدین 2",				"theme": 1.0, "libtheme": "CULTURE", "categorie": 106.0}, "geometry": { "type": "Point", "coordinates": [	44.3377503, 32.00347206]}},
{ "type": "Feature", "id": 468 , "properties": { "gid": 468, "___idobj": 3.0, "name": "فاطمیون",				"theme": 1.0, "libtheme": "CULTURE", "categorie": 106.0}, "geometry": { "type": "Point", "coordinates": [	44.3188327, 31.99548352]}},
{ "type": "Feature", "id": 469 , "properties": { "gid": 469, "___idobj": 3.0, "name": "الفرقدین",				"theme": 1.0, "libtheme": "CULTURE", "categorie": 106.0}, "geometry": { "type": "Point", "coordinates": [	44.3652600, 32.01300136]}},
{ "type": "Feature", "id": 470 , "properties": { "gid": 470, "___idobj": 3.0, "name": "ضفوف",				"theme": 1.0, "libtheme": "CULTURE", "categorie": 106.0}, "geometry": { "type": "Point", "coordinates": [	44.3206937, 31.99364671]}},
{ "type": "Feature", "id": 471 , "properties": { "gid": 471, "___idobj": 3.0, "name": "الفصول",				"theme": 1.0, "libtheme": "CULTURE", "categorie": 106.0}, "geometry": { "type": "Point", "coordinates": [	44.3208277, 31.99364855]}},
{ "type": "Feature", "id": 472 , "properties": { "gid": 472, "___idobj": 3.0, "name": "قصر الحبیب",				"theme": 1.0, "libtheme": "CULTURE", "categorie": 106.0}, "geometry": { "type": "Point", "coordinates": [	44.3208946, 31.99368367]}},
{ "type": "Feature", "id": 473 , "properties": { "gid": 473, "___idobj": 3.0, "name": "قصر الشهد",				"theme": 1.0, "libtheme": "CULTURE", "categorie": 106.0}, "geometry": { "type": "Point", "coordinates": [	44.3126554, 31.99657576]}},
{ "type": "Feature", "id": 474 , "properties": { "gid": 474, "___idobj": 3.0, "name": "قصر الحسن",				"theme": 1.0, "libtheme": "CULTURE", "categorie": 106.0}, "geometry": { "type": "Point", "coordinates": [	44.3192435, 31.9938348]}},
{ "type": "Feature", "id": 475 , "properties": { "gid": 475, "___idobj": 3.0, "name": "قمر بنی هاشم",				"theme": 1.0, "libtheme": "CULTURE", "categorie": 106.0}, "geometry": { "type": "Point", "coordinates": [	44.3268438, 31.99282578]}},
{ "type": "Feature", "id": 476 , "properties": { "gid": 476, "___idobj": 3.0, "name": "قمر",				"theme": 1.0, "libtheme": "CULTURE", "categorie": 106.0}, "geometry": { "type": "Point", "coordinates": [	44.3145299, 31.99816363]}},
{ "type": "Feature", "id": 477 , "properties": { "gid": 477, "___idobj": 3.0, "name": "القصید",				"theme": 1.0, "libtheme": "CULTURE", "categorie": 106.0}, "geometry": { "type": "Point", "coordinates": [	44.3112054, 31.99770363]}},
{ "type": "Feature", "id": 478 , "properties": { "gid": 478, "___idobj": 3.0, "name": "القسیم",				"theme": 1.0, "libtheme": "CULTURE", "categorie": 106.0}, "geometry": { "type": "Point", "coordinates": [	44.3152012, 31.99413948]}},
{ "type": "Feature", "id": 479 , "properties": { "gid": 479, "___idobj": 3.0, "name": "القسیم",				"theme": 1.0, "libtheme": "CULTURE", "categorie": 106.0}, "geometry": { "type": "Point", "coordinates": [	44.3238649, 31.99599498]}},
{ "type": "Feature", "id": 480 , "properties": { "gid": 480, "___idobj": 3.0, "name": "الغسان",				"theme": 1.0, "libtheme": "CULTURE", "categorie": 106.0}, "geometry": { "type": "Point", "coordinates": [	44.3192787, 31.99406547]}},
{ "type": "Feature", "id": 481 , "properties": { "gid": 481, "___idobj": 3.0, "name": "قصر العباس",				"theme": 1.0, "libtheme": "CULTURE", "categorie": 106.0}, "geometry": { "type": "Point", "coordinates": [	44.3108919, 31.99493861]}},
{ "type": "Feature", "id": 482 , "properties": { "gid": 482, "___idobj": 3.0, "name": "قصر ایة",				"theme": 1.0, "libtheme": "CULTURE", "categorie": 106.0}, "geometry": { "type": "Point", "coordinates": [	44.3256815, 31.99549726]}},
{ "type": "Feature", "id": 483 , "properties": { "gid": 483, "___idobj": 3.0, "name": "قصر البدر",				"theme": 1.0, "libtheme": "CULTURE", "categorie": 106.0}, "geometry": { "type": "Point", "coordinates": [	44.3216668, 31.9966714]}},
{ "type": "Feature", "id": 484 , "properties": { "gid": 484, "___idobj": 3.0, "name": "قصر الکرار",				"theme": 1.0, "libtheme": "CULTURE", "categorie": 106.0}, "geometry": { "type": "Point", "coordinates": [	44.3832887, 32.02104396]}},
{ "type": "Feature", "id": 485 , "properties": { "gid": 485, "___idobj": 3.0, "name": "قصر الملة",				"theme": 1.0, "libtheme": "CULTURE", "categorie": 106.0}, "geometry": { "type": "Point", "coordinates": [	44.3108247, 31.99495395]}},
{ "type": "Feature", "id": 486 , "properties": { "gid": 486, "___idobj": 3.0, "name": "قصر المصطفی",				"theme": 1.0, "libtheme": "CULTURE", "categorie": 106.0}, "geometry": { "type": "Point", "coordinates": [	44.3166378, 31.99531311]}},
{ "type": "Feature", "id": 487 , "properties": { "gid": 487, "___idobj": 3.0, "name": "قصر العلی",				"theme": 1.0, "libtheme": "CULTURE", "categorie": 106.0}, "geometry": { "type": "Point", "coordinates": [	44.3492064, 32.00731013]}},
{ "type": "Feature", "id": 488 , "properties": { "gid": 488, "___idobj": 3.0, "name": "قصر السدیر",				"theme": 1.0, "libtheme": "CULTURE", "categorie": 106.0}, "geometry": { "type": "Point", "coordinates": [	44.3125529, 31.99155576]}},
{ "type": "Feature", "id": 489 , "properties": { "gid": 489, "___idobj": 3.0, "name": "قصر السلطان",				"theme": 1.0, "libtheme": "CULTURE", "categorie": 106.0}, "geometry": { "type": "Point", "coordinates": [	44.3470407, 31.98406678]}},
{ "type": "Feature", "id": 490 , "properties": { "gid": 490, "___idobj": 3.0, "name": "قصر العلی",				"theme": 1.0, "libtheme": "CULTURE", "categorie": 106.0}, "geometry": { "type": "Point", "coordinates": [	44.3157219, 31.99888481]}},
{ "type": "Feature", "id": 491 , "properties": { "gid": 491, "___idobj": 3.0, "name": "قصر الزمان",				"theme": 1.0, "libtheme": "CULTURE", "categorie": 106.0}, "geometry": { "type": "Point", "coordinates": [	44.3692516, 32.0144215]}},
{ "type": "Feature", "id": 492 , "properties": { "gid": 492, "___idobj": 3.0, "name": "قصر فرید",				"theme": 1.0, "libtheme": "CULTURE", "categorie": 106.0}, "geometry": { "type": "Point", "coordinates": [	44.340968, 32.00449549]}},
{ "type": "Feature", "id": 493 , "properties": { "gid": 493, "___idobj": 3.0, "name": "قصر النجم",				"theme": 1.0, "libtheme": "CULTURE", "categorie": 106.0}, "geometry": { "type": "Point", "coordinates": [	44.3269998, 31.99793011]}},
{ "type": "Feature", "id": 494 , "properties": { "gid": 494, "___idobj": 3.0, "name": "قصر الضفاف",				"theme": 1.0, "libtheme": "CULTURE", "categorie": 106.0}, "geometry": { "type": "Point", "coordinates": [	44.3124166, 31.99505981]}},
{ "type": "Feature", "id": 495 , "properties": { "gid": 495, "___idobj": 3.0, "name": "قصر الرضا",				"theme": 1.0, "libtheme": "CULTURE", "categorie": 106.0}, "geometry": { "type": "Point", "coordinates": [	44.3322895, 32.00212584]}},
{ "type": "Feature", "id": 496 , "properties": { "gid": 496, "___idobj": 3.0, "name": "قصر السعد",				"theme": 1.0, "libtheme": "CULTURE", "categorie": 106.0}, "geometry": { "type": "Point", "coordinates": [	44.3620170, 32.00274451]}},
{ "type": "Feature", "id": 497 , "properties": { "gid": 497, "___idobj": 3.0, "name": "قصر الطوس",				"theme": 1.0, "libtheme": "CULTURE", "categorie": 106.0}, "geometry": { "type": "Point", "coordinates": [	44.3141414, 31.99762534]}},
{ "type": "Feature", "id": 498 , "properties": { "gid": 498, "___idobj": 3.0, "name": "قصر الزائرین",				"theme": 1.0, "libtheme": "CULTURE", "categorie": 106.0}, "geometry": { "type": "Point", "coordinates": [	44.3221341, 31.99521136]}},
{ "type": "Feature", "id": 499 , "properties": { "gid": 499, "___idobj": 3.0, "name": "الکابتن",				"theme": 1.0, "libtheme": "CULTURE", "categorie": 106.0}, "geometry": { "type": "Point", "coordinates": [	44.3223727, 31.99060944]}},
{ "type": "Feature", "id": 500 , "properties": { "gid": 500, "___idobj": 3.0, "name": "القباب الزینبیة",				"theme": 1.0, "libtheme": "CULTURE", "categorie": 106.0}, "geometry": { "type": "Point", "coordinates": [	44.3185877, 31.9973821]}},
{ "type": "Feature", "id": 501 , "properties": { "gid": 501, "___idobj": 3.0, "name": "القبة البیضاء",				"theme": 1.0, "libtheme": "CULTURE", "categorie": 106.0}, "geometry": { "type": "Point", "coordinates": [	44.3263953, 31.99536734]}},
{ "type": "Feature", "id": 502 , "properties": { "gid": 502, "___idobj": 3.0, "name": "الغفران",				"theme": 1.0, "libtheme": "CULTURE", "categorie": 106.0}, "geometry": { "type": "Point", "coordinates": [	44.337016, 32.00304835]}},
{ "type": "Feature", "id": 503 , "properties": { "gid": 503, "___idobj": 3.0, "name": "قصر الامارة",				"theme": 1.0, "libtheme": "CULTURE", "categorie": 106.0}, "geometry": { "type": "Point", "coordinates": [	44.3243564, 31.99519937]}},
{ "type": "Feature", "id": 504 , "properties": { "gid": 504, "___idobj": 3.0, "name": "قبة البیضاء",				"theme": 1.0, "libtheme": "CULTURE", "categorie": 106.0}, "geometry": { "type": "Point", "coordinates": [	44.3264668, 31.99544714]}},
{ "type": "Feature", "id": 505 , "properties": { "gid": 505, "___idobj": 3.0, "name": "الحمد",				"theme": 1.0, "libtheme": "CULTURE", "categorie": 106.0}, "geometry": { "type": "Point", "coordinates": [	44.3271415, 32.00918273]}},
{ "type": "Feature", "id": 506 , "properties": { "gid": 506, "___idobj": 3.0, "name": "هیفا",				"theme": 1.0, "libtheme": "CULTURE", "categorie": 106.0}, "geometry": { "type": "Point", "coordinates": [	44.3155375, 31.9929495]}},
{ "type": "Feature", "id": 507 , "properties": { "gid": 507, "___idobj": 3.0, "name": "السماء",				"theme": 1.0, "libtheme": "CULTURE", "categorie": 106.0}, "geometry": { "type": "Point", "coordinates": [	44.3292924, 31.99997144]}},
{ "type": "Feature", "id": 508 , "properties": { "gid": 508, "___idobj": 3.0, "name": "الهمام",				"theme": 1.0, "libtheme": "CULTURE", "categorie": 106.0}, "geometry": { "type": "Point", "coordinates": [	44.3294370, 31.99994805]}},
{ "type": "Feature", "id": 509 , "properties": { "gid": 509, "___idobj": 3.0, "name": "الحویشی",				"theme": 1.0, "libtheme": "CULTURE", "categorie": 106.0}, "geometry": { "type": "Point", "coordinates": [	44.3171882, 31.99648239]}},
{ "type": "Feature", "id": 510 , "properties": { "gid": 510, "___idobj": 3.0, "name": "جنة الفاطمیة",				"theme": 1.0, "libtheme": "CULTURE", "categorie": 106.0}, "geometry": { "type": "Point", "coordinates": [	44.3255032, 31.99301857]}},
{ "type": "Feature", "id": 511 , "properties": { "gid": 511, "___idobj": 3.0, "name": "جنة الغری",				"theme": 1.0, "libtheme": "CULTURE", "categorie": 106.0}, "geometry": { "type": "Point", "coordinates": [	44.3151098, 31.99394024]}},
{ "type": "Feature", "id": 512 , "properties": { "gid": 512, "___idobj": 3.0, "name": "جنة الخللود",				"theme": 1.0, "libtheme": "CULTURE", "categorie": 106.0}, "geometry": { "type": "Point", "coordinates": [	44.3282835, 31.99710868]}},
{ "type": "Feature", "id": 513 , "properties": { "gid": 513, "___idobj": 3.0, "name": "جنة المصطفی",				"theme": 1.0, "libtheme": "CULTURE", "categorie": 106.0}, "geometry": { "type": "Point", "coordinates": [	44.3182040, 31.99274339]}},
{ "type": "Feature", "id": 514 , "properties": { "gid": 514, "___idobj": 3.0, "name": "جنة الرضا",				"theme": 1.0, "libtheme": "CULTURE", "categorie": 106.0}, "geometry": { "type": "Point", "coordinates": [	44.3376169, 32.00334163]}},
{ "type": "Feature", "id": 515 , "properties": { "gid": 515, "___idobj": 3.0, "name": "جنة الفهد",				"theme": 1.0, "libtheme": "CULTURE", "categorie": 106.0}, "geometry": { "type": "Point", "coordinates": [	44.3201077, 31.99335099]}},
{ "type": "Feature", "id": 516 , "properties": { "gid": 516, "___idobj": 3.0, "name": "جنة الزهراء",				"theme": 1.0, "libtheme": "CULTURE", "categorie": 106.0}, "geometry": { "type": "Point", "coordinates": [	44.3140743, 31.99140279]}},
{ "type": "Feature", "id": 517 , "properties": { "gid": 517, "___idobj": 3.0, "name": "جار المنتظر",				"theme": 1.0, "libtheme": "CULTURE", "categorie": 106.0}, "geometry": { "type": "Point", "coordinates": [	44.3806959, 32.03793827]}},
{ "type": "Feature", "id": 518 , "properties": { "gid": 518, "___idobj": 3.0, "name": "جار الشفاعة",				"theme": 1.0, "libtheme": "CULTURE", "categorie": 106.0}, "geometry": { "type": "Point", "coordinates": [	44.3128171, 31.99630821]}},
{ "type": "Feature", "id": 519 , "properties": { "gid": 519, "___idobj": 3.0, "name": "الجواد",				"theme": 1.0, "libtheme": "CULTURE", "categorie": 106.0}, "geometry": { "type": "Point", "coordinates": [	44.3201465, 31.99370236]}},
{ "type": "Feature", "id": 520 , "properties": { "gid": 520, "___idobj": 3.0, "name": "جوهرة النجف",				"theme": 1.0, "libtheme": "CULTURE", "categorie": 106.0}, "geometry": { "type": "Point", "coordinates": [	44.3205637, 31.99381418]}},
{ "type": "Feature", "id": 521 , "properties": { "gid": 521, "___idobj": 3.0, "name": "جوهرة بیروت",				"theme": 1.0, "libtheme": "CULTURE", "categorie": 106.0}, "geometry": { "type": "Point", "coordinates": [	44.3301927, 32.00306227]}},
{ "type": "Feature", "id": 522 , "properties": { "gid": 522, "___idobj": 3.0, "name": "کربلاء المقدسة",				"theme": 1.0, "libtheme": "CULTURE", "categorie": 106.0}, "geometry": { "type": "Point", "coordinates": [	44.3161680, 31.99872857]}},
{ "type": "Feature", "id": 523 , "properties": { "gid": 523, "___idobj": 3.0, "name": "خدیجة الکبری",				"theme": 1.0, "libtheme": "CULTURE", "categorie": 106.0}, "geometry": { "type": "Point", "coordinates": [	44.3309633, 31.99433494]}},
{ "type": "Feature", "id": 524 , "properties": { "gid": 524, "___idobj": 3.0, "name": "الحکمة",				"theme": 1.0, "libtheme": "CULTURE", "categorie": 106.0}, "geometry": { "type": "Point", "coordinates": [	44.3202821, 32.03129084]}},
{ "type": "Feature", "id": 525 , "properties": { "gid": 525, "___idobj": 3.0, "name": "الخیر",				"theme": 1.0, "libtheme": "CULTURE", "categorie": 106.0}, "geometry": { "type": "Point", "coordinates": [	44.3161843, 31.99208298]}},
{ "type": "Feature", "id": 526 , "properties": { "gid": 526, "___idobj": 3.0, "name": "الخیرات",				"theme": 1.0, "libtheme": "CULTURE", "categorie": 106.0}, "geometry": { "type": "Point", "coordinates": [	44.3476146, 32.0212686]}},
{ "type": "Feature", "id": 527 , "properties": { "gid": 527, "___idobj": 3.0, "name": "اللوان النجف",				"theme": 1.0, "libtheme": "CULTURE", "categorie": 106.0}, "geometry": { "type": "Point", "coordinates": [	44.3197444, 31.99416546]}},
{ "type": "Feature", "id": 528 , "properties": { "gid": 528, "___idobj": 3.0, "name": "لطف الزهراء",				"theme": 1.0, "libtheme": "CULTURE", "categorie": 106.0}, "geometry": { "type": "Point", "coordinates": [	44.331904, 31.99883494]}},
{ "type": "Feature", "id": 529 , "properties": { "gid": 529, "___idobj": 3.0, "name": "اشبز",				"theme": 1.0, "libtheme": "CULTURE", "categorie": 106.0}, "geometry": { "type": "Point", "coordinates": [	44.3292858, 31.99615063]}},
{ "type": "Feature", "id": 530 , "properties": { "gid": 530, "___idobj": 3.0, "name": "مدینة العلم",				"theme": 1.0, "libtheme": "CULTURE", "categorie": 106.0}, "geometry": { "type": "Point", "coordinates": [	44.3124488, 31.99817947]}},
{ "type": "Feature", "id": 531 , "properties": { "gid": 531, "___idobj": 3.0, "name": "المدینة الحیدریة",				"theme": 1.0, "libtheme": "CULTURE", "categorie": 106.0}, "geometry": { "type": "Point", "coordinates": [	44.3235687, 31.99607117]}},
{ "type": "Feature", "id": 532 , "properties": { "gid": 532, "___idobj": 3.0, "name": "مدینة النجوم",				"theme": 1.0, "libtheme": "CULTURE", "categorie": 106.0}, "geometry": { "type": "Point", "coordinates": [	44.3569722, 32.00429868]}},
{ "type": "Feature", "id": 533 , "properties": { "gid": 533, "___idobj": 3.0, "name": "مدینة النور",				"theme": 1.0, "libtheme": "CULTURE", "categorie": 106.0}, "geometry": { "type": "Point", "coordinates": [	44.3287999, 31.99448213]}},
{ "type": "Feature", "id": 534 , "properties": { "gid": 534, "___idobj": 3.0, "name": "معجم بحر النجف",				"theme": 1.0, "libtheme": "CULTURE", "categorie": 106.0}, "geometry": { "type": "Point", "coordinates": [	44.3129040, 31.99131897]}},
{ "type": "Feature", "id": 535 , "properties": { "gid": 535, "___idobj": 3.0, "name": "معجم زمزم",				"theme": 1.0, "libtheme": "CULTURE", "categorie": 106.0}, "geometry": { "type": "Point", "coordinates": [	44.3096690, 31.99443544]}},
{ "type": "Feature", "id": 536 , "properties": { "gid": 536, "___idobj": 3.0, "name": "ملاذ",				"theme": 1.0, "libtheme": "CULTURE", "categorie": 106.0}, "geometry": { "type": "Point", "coordinates": [	44.337970, 32.00351464]}},
{ "type": "Feature", "id": 537 , "properties": { "gid": 537, "___idobj": 3.0, "name": "الملک",				"theme": 1.0, "libtheme": "CULTURE", "categorie": 106.0}, "geometry": { "type": "Point", "coordinates": [	44.311048, 31.99332501]}},
{ "type": "Feature", "id": 538 , "properties": { "gid": 538, "___idobj": 3.0, "name": "مصباح الهدی",				"theme": 1.0, "libtheme": "CULTURE", "categorie": 106.0}, "geometry": { "type": "Point", "coordinates": [	44.3128951, 31.99508035]}},
{ "type": "Feature", "id": 539 , "properties": { "gid": 539, "___idobj": 3.0, "name": "المشکاة",				"theme": 1.0, "libtheme": "CULTURE", "categorie": 106.0}, "geometry": { "type": "Point", "coordinates": [	44.3389356, 32.00382468]}},
{ "type": "Feature", "id": 540 , "properties": { "gid": 540, "___idobj": 3.0, "name": "المباهلة",				"theme": 1.0, "libtheme": "CULTURE", "categorie": 106.0}, "geometry": { "type": "Point", "coordinates": [	44.3221222, 31.99677324]}},
{ "type": "Feature", "id": 541 , "properties": { "gid": 541, "___idobj": 3.0, "name": "المهند",				"theme": 1.0, "libtheme": "CULTURE", "categorie": 106.0}, "geometry": { "type": "Point", "coordinates": [	44.3117376, 31.99750347]}},
{ "type": "Feature", "id": 542 , "properties": { "gid": 542, "___idobj": 3.0, "name": "المصطفی",				"theme": 1.0, "libtheme": "CULTURE", "categorie": 106.0}, "geometry": { "type": "Point", "coordinates": [	44.328709, 31.99948554]}},
{ "type": "Feature", "id": 543 , "properties": { "gid": 543, "___idobj": 3.0, "name": "مضیف الحسین",				"theme": 1.0, "libtheme": "CULTURE", "categorie": 106.0}, "geometry": { "type": "Point", "coordinates": [	44.3187673, 31.99475504]}},
{ "type": "Feature", "id": 544 , "properties": { "gid": 544, "___idobj": 3.0, "name": "مضیف الحسین",				"theme": 1.0, "libtheme": "CULTURE", "categorie": 106.0}, "geometry": { "type": "Point", "coordinates": [	44.3189769, 31.9947843]}},
{ "type": "Feature", "id": 545 , "properties": { "gid": 545, "___idobj": 3.0, "name": "مضیف الحسن",				"theme": 1.0, "libtheme": "CULTURE", "categorie": 106.0}, "geometry": { "type": "Point", "coordinates": [	44.3183081, 31.99767178]}},
{ "type": "Feature", "id": 546 , "properties": { "gid": 546, "___idobj": 3.0, "name": "النبأ",				"theme": 1.0, "libtheme": "CULTURE", "categorie": 106.0}, "geometry": { "type": "Point", "coordinates": [	44.3224089, 31.99690986]}},
{ "type": "Feature", "id": 547 , "properties": { "gid": 547, "___idobj": 3.0, "name": "النجوم الذهب",				"theme": 1.0, "libtheme": "CULTURE", "categorie": 106.0}, "geometry": { "type": "Point", "coordinates": [	44.3176114, 31.99668967]}},
{ "type": "Feature", "id": 548 , "properties": { "gid": 548, "___idobj": 3.0, "name": "النرجس",				"theme": 1.0, "libtheme": "CULTURE", "categorie": 106.0}, "geometry": { "type": "Point", "coordinates": [	44.3329642, 32.00187279]}},
{ "type": "Feature", "id": 549 , "properties": { "gid": 549, "___idobj": 3.0, "name": "النصر",				"theme": 1.0, "libtheme": "CULTURE", "categorie": 106.0}, "geometry": { "type": "Point", "coordinates": [	44.3311142, 31.99447576]}},
{ "type": "Feature", "id": 550 , "properties": { "gid": 550, "___idobj": 3.0, "name": "النسیم",				"theme": 1.0, "libtheme": "CULTURE", "categorie": 106.0}, "geometry": { "type": "Point", "coordinates": [	44.3203917, 31.99015019]}},
{ "type": "Feature", "id": 551 , "properties": { "gid": 551, "___idobj": 3.0, "name": "نور العباس",				"theme": 1.0, "libtheme": "CULTURE", "categorie": 106.0}, "geometry": { "type": "Point", "coordinates": [	44.3108712, 31.9946356]}},
{ "type": "Feature", "id": 552 , "properties": { "gid": 552, "___idobj": 3.0, "name": "نور الحسنین",				"theme": 1.0, "libtheme": "CULTURE", "categorie": 106.0}, "geometry": { "type": "Point", "coordinates": [	44.3189459, 31.99339625]}},
{ "type": "Feature", "id": 553 , "properties": { "gid": 553, "___idobj": 3.0, "name": "نور الحسن",				"theme": 1.0, "libtheme": "CULTURE", "categorie": 106.0}, "geometry": { "type": "Point", "coordinates": [	44.333956, 31.99484666]}},
{ "type": "Feature", "id": 554 , "properties": { "gid": 554, "___idobj": 3.0, "name": "نور العلیی",				"theme": 1.0, "libtheme": "CULTURE", "categorie": 106.0}, "geometry": { "type": "Point", "coordinates": [	44.315194, 31.993884]}},
{ "type": "Feature", "id": 555 , "properties": { "gid": 555, "___idobj": 3.0, "name": "نور الزهراء",				"theme": 1.0, "libtheme": "CULTURE", "categorie": 106.0}, "geometry": { "type": "Point", "coordinates": [	44.3338060, 31.99571611]}},
{ "type": "Feature", "id": 556 , "properties": { "gid": 556, "___idobj": 3.0, "name": "نور الشمس",				"theme": 1.0, "libtheme": "CULTURE", "categorie": 106.0}, "geometry": { "type": "Point", "coordinates": [	44.3252433, 31.99180109]}},
{ "type": "Feature", "id": 557 , "properties": { "gid": 557, "___idobj": 3.0, "name": "نور الحسن",				"theme": 1.0, "libtheme": "CULTURE", "categorie": 106.0}, "geometry": { "type": "Point", "coordinates": [	44.3188764, 31.99342266]}},
{ "type": "Feature", "id": 558 , "properties": { "gid": 558, "___idobj": 3.0, "name": "امناء الرحمن",				"theme": 1.0, "libtheme": "CULTURE", "categorie": 106.0}, "geometry": { "type": "Point", "coordinates": [	44.3668854, 32.01437071]}},
{ "type": "Feature", "id": 559 , "properties": { "gid": 559, "___idobj": 3.0, "name": "العمر",				"theme": 1.0, "libtheme": "CULTURE", "categorie": 106.0}, "geometry": { "type": "Point", "coordinates": [	44.3143350, 31.99793883]}},
{ "type": "Feature", "id": 560 , "properties": { "gid": 560, "___idobj": 3.0, "name": "عیون الملیک",				"theme": 1.0, "libtheme": "CULTURE", "categorie": 106.0}, "geometry": { "type": "Point", "coordinates": [	44.3198492, 31.99426236]}},
{ "type": "Feature", "id": 561 , "properties": { "gid": 561, "___idobj": 3.0, "name": "الرقیم",				"theme": 1.0, "libtheme": "CULTURE", "categorie": 106.0}, "geometry": { "type": "Point", "coordinates": [	44.3113068, 31.99320741]}},
{ "type": "Feature", "id": 562 , "properties": { "gid": 562, "___idobj": 3.0, "name": "الرؤوف",				"theme": 1.0, "libtheme": "CULTURE", "categorie": 106.0}, "geometry": { "type": "Point", "coordinates": [	44.3182720, 31.99671976]}},
{ "type": "Feature", "id": 563 , "properties": { "gid": 563, "___idobj": 3.0, "name": "رایة حیدر",				"theme": 1.0, "libtheme": "CULTURE", "categorie": 106.0}, "geometry": { "type": "Point", "coordinates": [	44.3195637, 31.98978307]}},
{ "type": "Feature", "id": 564 , "properties": { "gid": 564, "___idobj": 3.0, "name": "الرایة",				"theme": 1.0, "libtheme": "CULTURE", "categorie": 106.0}, "geometry": { "type": "Point", "coordinates": [	44.3278832, 31.99739635]}},
{ "type": "Feature", "id": 565 , "properties": { "gid": 565, "___idobj": 3.0, "name": "رهان المصطفی",				"theme": 1.0, "libtheme": "CULTURE", "categorie": 106.0}, "geometry": { "type": "Point", "coordinates": [	44.3176739, 31.99191199]}},
{ "type": "Feature", "id": 566 , "properties": { "gid": 566, "___idobj": 3.0, "name": "ریتاج",				"theme": 1.0, "libtheme": "CULTURE", "categorie": 106.0}, "geometry": { "type": "Point", "coordinates": [	44.3289289, 31.99374435]}},
{ "type": "Feature", "id": 567 , "properties": { "gid": 567, "___idobj": 3.0, "name": "الریاحی",				"theme": 1.0, "libtheme": "CULTURE", "categorie": 106.0}, "geometry": { "type": "Point", "coordinates": [	44.3230335, 31.99575073]}},
{ "type": "Feature", "id": 568 , "properties": { "gid": 568, "___idobj": 3.0, "name": "الرسول",				"theme": 1.0, "libtheme": "CULTURE", "categorie": 106.0}, "geometry": { "type": "Point", "coordinates": [	44.3127966, 31.99489921]}},
{ "type": "Feature", "id": 569 , "properties": { "gid": 569, "___idobj": 3.0, "name": "الرضا",				"theme": 1.0, "libtheme": "CULTURE", "categorie": 106.0}, "geometry": { "type": "Point", "coordinates": [	44.3160726, 31.99155802]}},
{ "type": "Feature", "id": 570 , "properties": { "gid": 570, "___idobj": 3.0, "name": "الصفا",				"theme": 1.0, "libtheme": "CULTURE", "categorie": 106.0}, "geometry": { "type": "Point", "coordinates": [	44.3385134, 32.00360374]}},
{ "type": "Feature", "id": 571 , "properties": { "gid": 571, "___idobj": 3.0, "name": "سفینة الحسین",				"theme": 1.0, "libtheme": "CULTURE", "categorie": 106.0}, "geometry": { "type": "Point", "coordinates": [	44.3203022, 31.99368727]}},
{ "type": "Feature", "id": 572 , "properties": { "gid": 572, "___idobj": 3.0, "name": "سفینة النجاح",				"theme": 1.0, "libtheme": "CULTURE", "categorie": 106.0}, "geometry": { "type": "Point", "coordinates": [	44.3249444, 31.99192573]}},
{ "type": "Feature", "id": 573 , "properties": { "gid": 573, "___idobj": 3.0, "name": "السجا",				"theme": 1.0, "libtheme": "CULTURE", "categorie": 106.0}, "geometry": { "type": "Point", "coordinates": [	44.3116711, 31.99776641]}},
{ "type": "Feature", "id": 574 , "properties": { "gid": 574, "___idobj": 3.0, "name": "السلبیل",				"theme": 1.0, "libtheme": "CULTURE", "categorie": 106.0}, "geometry": { "type": "Point", "coordinates": [	44.3930948, 32.02629967]}},
{ "type": "Feature", "id": 575 , "properties": { "gid": 575, "___idobj": 3.0, "name": "السایر",				"theme": 1.0, "libtheme": "CULTURE", "categorie": 106.0}, "geometry": { "type": "Point", "coordinates": [	44.3346081, 32.0021856]}},
{ "type": "Feature", "id": 576 , "properties": { "gid": 576, "___idobj": 3.0, "name": "الصفین",				"theme": 1.0, "libtheme": "CULTURE", "categorie": 106.0}, "geometry": { "type": "Point", "coordinates": [	44.3214339, 31.99256318]}},
{ "type": "Feature", "id": 577 , "properties": { "gid": 577, "___idobj": 3.0, "name": "سیف الامیر",				"theme": 1.0, "libtheme": "CULTURE", "categorie": 106.0}, "geometry": { "type": "Point", "coordinates": [	44.3190133, 31.9942502]}},
{ "type": "Feature", "id": 578 , "properties": { "gid": 578, "___idobj": 3.0, "name": "الشفاعة",				"theme": 1.0, "libtheme": "CULTURE", "categorie": 106.0}, "geometry": { "type": "Point", "coordinates": [	44.3157963, 31.99361234]}},
{ "type": "Feature", "id": 579 , "properties": { "gid": 579, "___idobj": 3.0, "name": "شهید المحراب",				"theme": 1.0, "libtheme": "CULTURE", "categorie": 106.0}, "geometry": { "type": "Point", "coordinates": [	44.3209498, 31.99345954]}},
{ "type": "Feature", "id": 580 , "properties": { "gid": 580, "___idobj": 3.0, "name": "الشریعة",				"theme": 1.0, "libtheme": "CULTURE", "categorie": 106.0}, "geometry": { "type": "Point", "coordinates": [	44.3348731, 32.00223447]}},
{ "type": "Feature", "id": 581 , "properties": { "gid": 581, "___idobj": 3.0, "name": "شموع الغری",				"theme": 1.0, "libtheme": "CULTURE", "categorie": 106.0}, "geometry": { "type": "Point", "coordinates": [	44.3593628, 32.00100912]}},
{ "type": "Feature", "id": 582 , "properties": { "gid": 582, "___idobj": 3.0, "name": "السلطان",				"theme": 1.0, "libtheme": "CULTURE", "categorie": 106.0}, "geometry": { "type": "Point", "coordinates": [	44.3327305, 31.99724673]}},
{ "type": "Feature", "id": 583 , "properties": { "gid": 583, "___idobj": 3.0, "name": "تبوک",				"theme": 1.0, "libtheme": "CULTURE", "categorie": 106.0}, "geometry": { "type": "Point", "coordinates": [	44.3231407, 31.99610663]}},
{ "type": "Feature", "id": 584 , "properties": { "gid": 584, "___idobj": 3.0, "name": "طیبة النجف",				"theme": 1.0, "libtheme": "CULTURE", "categorie": 106.0}, "geometry": { "type": "Point", "coordinates": [	44.3293384, 32.00445458]}},
{ "type": "Feature", "id": 585 , "properties": { "gid": 585, "___idobj": 3.0, "name": "التیسیر",				"theme": 1.0, "libtheme": "CULTURE", "categorie": 106.0}, "geometry": { "type": "Point", "coordinates": [	44.3220121, 31.99074439]}},
{ "type": "Feature", "id": 586 , "properties": { "gid": 586, "___idobj": 3.0, "name": "الطور",				"theme": 1.0, "libtheme": "CULTURE", "categorie": 106.0}, "geometry": { "type": "Point", "coordinates": [	44.3182453, 31.99803153]}},
{ "type": "Feature", "id": 587 , "properties": { "gid": 587, "___idobj": 3.0, "name": "فداء الضحی",				"theme": 1.0, "libtheme": "CULTURE", "categorie": 106.0}, "geometry": { "type": "Point", "coordinates": [	44.3336564, 31.99607503]}},
{ "type": "Feature", "id": 588 , "properties": { "gid": 588, "___idobj": 3.0, "name": "فداء الجمل",				"theme": 1.0, "libtheme": "CULTURE", "categorie": 106.0}, "geometry": { "type": "Point", "coordinates": [	44.3178699, 31.99812516]}},
{ "type": "Feature", "id": 589 , "properties": { "gid": 589, "___idobj": 3.0, "name": "فداء المقدس",				"theme": 1.0, "libtheme": "CULTURE", "categorie": 106.0}, "geometry": { "type": "Point", "coordinates": [	44.3272763, 31.99736743]}},
{ "type": "Feature", "id": 590 , "properties": { "gid": 590, "___idobj": 3.0, "name": "الفارس",				"theme": 1.0, "libtheme": "CULTURE", "categorie": 106.0}, "geometry": { "type": "Point", "coordinates": [	44.3400549, 32.00417597]}},
{ "type": "Feature", "id": 591 , "properties": { "gid": 591, "___idobj": 3.0, "name": "ولایة علی",				"theme": 1.0, "libtheme": "CULTURE", "categorie": 106.0}, "geometry": { "type": "Point", "coordinates": [	44.326563, 32.01285434]}},
{ "type": "Feature", "id": 592 , "properties": { "gid": 592, "___idobj": 3.0, "name": "الیاسین",				"theme": 1.0, "libtheme": "CULTURE", "categorie": 106.0}, "geometry": { "type": "Point", "coordinates": [	44.3174679, 31.99502553]}},
{ "type": "Feature", "id": 593 , "properties": { "gid": 593, "___idobj": 3.0, "name": "الیسر",				"theme": 1.0, "libtheme": "CULTURE", "categorie": 106.0}, "geometry": { "type": "Point", "coordinates": [	44.3156180, 31.99245933]}},
{ "type": "Feature", "id": 594 , "properties": { "gid": 594, "___idobj": 3.0, "name": "الزاهد",				"theme": 1.0, "libtheme": "CULTURE", "categorie": 106.0}, "geometry": { "type": "Point", "coordinates": [	44.3172109, 31.98907153]}},
{ "type": "Feature", "id": 595 , "properties": { "gid": 595, "___idobj": 3.0, "name": "زمزم",				"theme": 1.0, "libtheme": "CULTURE", "categorie": 106.0}, "geometry": { "type": "Point", "coordinates": [	44.3318564, 32.00165855]}},
{ "type": "Feature", "id": 596 , "properties": { "gid": 596, "___idobj": 3.0, "name": "زین",				"theme": 1.0, "libtheme": "CULTURE", "categorie": 106.0}, "geometry": { "type": "Point", "coordinates": [	44.320509, 31.99463158]}},
{ "type": "Feature", "id": 597 , "properties": { "gid": 597, "___idobj": 3.0, "name": "الزهور",				"theme": 1.0, "libtheme": "CULTURE", "categorie": 106.0}, "geometry": { "type": "Point", "coordinates": [	44.3184635, 31.99546617]}},
{ "type": "Feature", "id": 598 , "properties": { "gid": 598, "___idobj": 3.0, "name": "زهور النجف",				"theme": 1.0, "libtheme": "CULTURE", "categorie": 106.0}, "geometry": { "type": "Point", "coordinates": [	44.3161242, 31.99873444]}},
{ "type": "Feature", "id": 599 , "properties": { "gid": 599, "___idobj": 3.0, "name": "ذو الفقار",				"theme": 1.0, "libtheme": "CULTURE", "categorie": 106.0}, "geometry": { "type": "Point", "coordinates": [	44.3226093, 31.9967196]}},
{ "type": "Feature", "id": 600 , "properties": { "gid": 600, "___idobj": 3.0, "name": "ضیوف الباقر",				"theme": 1.0, "libtheme": "CULTURE", "categorie": 106.0}, "geometry": { "type": "Point", "coordinates": [	44.3163897, 31.99516006]}},

{ "type": "Feature", "id": 600 , "properties": { "gid": 600, "___idobj": 3.0, "name": "فندق طیبة السیاحی",				"theme": 1.0, "libtheme": "CULTURE", "categorie": 106.0}, "geometry": { "type": "Point", "coordinates": [44.341941,33.379984]}},
{ "type": "Feature", "id": 600 , "properties": { "gid": 600, "___idobj": 3.0, "name": "شناشیل الکاظمیة",				"theme": 1.0, "libtheme": "CULTURE", "categorie": 106.0}, "geometry": { "type": "Point", "coordinates": [44.338453,33.376659]}},
{ "type": "Feature", "id": 600 , "properties": { "gid": 600, "___idobj": 3.0, "name": "قصر الکاظمیة",				"theme": 1.0, "libtheme": "CULTURE", "categorie": 106.0}, "geometry": { "type": "Point", "coordinates": [44.33791,33.374652]}},
{ "type": "Feature", "id": 600 , "properties": { "gid": 600, "___idobj": 3.0, "name": "زهرات الکاظمیة",				"theme": 1.0, "libtheme": "CULTURE", "categorie": 106.0}, "geometry": { "type": "Point", "coordinates": [44.337932,33.375848]}},
{ "type": "Feature", "id": 600 , "properties": { "gid": 600, "___idobj": 3.0, "name": "فندق العکیلی",				"theme": 1.0, "libtheme": "CULTURE", "categorie": 106.0}, "geometry": { "type": "Point", "coordinates": [44.339195,33.372767]}},
{ "type": "Feature", "id": 600 , "properties": { "gid": 600, "___idobj": 3.0, "name": "فندق القمرین",				"theme": 1.0, "libtheme": "CULTURE", "categorie": 106.0}, "geometry": { "type": "Point", "coordinates": [44.337276,33.375175]}},
{ "type": "Feature", "id": 600 , "properties": { "gid": 600, "___idobj": 3.0, "name": "فندق النور السیاحی",				"theme": 1.0, "libtheme": "CULTURE", "categorie": 106.0}, "geometry": { "type": "Point", "coordinates": [44.341337,33.380211]}},
{ "type": "Feature", "id": 600 , "properties": { "gid": 600, "___idobj": 3.0, "name": "فندق ومطعم القائم",				"theme": 1.0, "libtheme": "CULTURE", "categorie": 106.0}, "geometry": { "type": "Point", "coordinates": [44.339823,33.374169]}},
{ "type": "Feature", "id": 600 , "properties": { "gid": 600, "___idobj": 3.0, "name": "فندق فدک الزهراء",				"theme": 1.0, "libtheme": "CULTURE", "categorie": 106.0}, "geometry": { "type": "Point", "coordinates": [44.34479,33.381139]}},
{ "type": "Feature", "id": 600 , "properties": { "gid": 600, "___idobj": 3.0, "name": "فندق الخفاجی	",				"theme": 1.0, "libtheme": "CULTURE", "categorie": 106.0}, "geometry": { "type": "Point", "coordinates": [44.34437,33.381102]}},
{ "type": "Feature", "id": 600 , "properties": { "gid": 600, "___idobj": 3.0, "name": "فندف جنة ابو طالب",				"theme": 1.0, "libtheme": "CULTURE", "categorie": 106.0}, "geometry": { "type": "Point", "coordinates": [44.33919,33.378243]}},








{ "type": "Feature", "id": 601 , "properties": { "gid": 601, "___idobj": 3.0, "name": "مسجد الکوفة",				"theme": 1.0, "libtheme": "CULTURE", "categorie": 101.0}, "geometry": { "type": "Point", "coordinates": [	44.4008203020384 , 32.0288723967338  ]}},
{ "type": "Feature", "id": 603 , "properties": { "gid": 603, "___idobj": 3.0, "name": "مسجد سهله",				"theme": 1.0, "libtheme": "CULTURE", "categorie": 101.0}, "geometry": { "type": "Point", "coordinates": [	44.37993154531116 , 32.0389212932723  ]}},
{ "type": "Feature", "id": 604 , "properties": { "gid": 604, "___idobj": 3.0, "name": "مرقد کمیل",				"theme": 1.0, "libtheme": "CULTURE", "categorie": 101.0}, "geometry": { "type": "Point", "coordinates": [	44.3387530230708 , 32.00680564368995  ]}},
{ "type": "Feature", "id": 605 , "properties": { "gid": 605, "___idobj": 3.0, "name": "مسجد الحنانه",				"theme": 1.0, "libtheme": "CULTURE", "categorie": 101.0}, "geometry": { "type": "Point", "coordinates": [	44.33475734930396 , 32.00481480393275  ]}},
{ "type": "Feature", "id": 606 , "properties": { "gid": 606, "___idobj": 3.0, "name": "مرقد الحکیم",				"theme": 1.0, "libtheme": "CULTURE", "categorie": 101.0}, "geometry": { "type": "Point", "coordinates": [	44.33232940008139 , 32.00001671444795  ]}},
{ "type": "Feature", "id": 607 , "properties": { "gid": 607, "___idobj": 3.0, "name": "حرم امام علی - امیرالمومنین علیه السلام",				"theme": 1.0, "libtheme": "CULTURE", "categorie": 101.0}, "geometry": { "type": "Point", "coordinates": [	44.31451349367345 , 31.99590495623252 ]}},
{ "type": "Feature", "id": 609 , "properties": { "gid": 609, "___idobj": 3.0, "name": "مرقد هود وصالح",				"theme": 1.0, "libtheme": "CULTURE", "categorie": 101.0}, "geometry": { "type": "Point", "coordinates": [	44.31655901186449 , 31.99997218658451 ]}},
{ "type": "Feature", "id": 610 , "properties": { "gid": 610, "___idobj": 3.0, "name": "مرقد ایة الله القاضی",				"theme": 1.0, "libtheme": "CULTURE", "categorie": 101.0}, "geometry": { "type": "Point", "coordinates": [	44.31497448965032 , 32.00029956252908 ]}},
{ "type": "Feature", "id": 611 , "properties": { "gid": 611, "___idobj": 3.0, "name": "مقام امام الزمان",				"theme": 1.0, "libtheme": "CULTURE", "categorie": 101.0}, "geometry": { "type": "Point", "coordinates": [	44.31273778921567 , 32.00187900156919 ]}},
{ "type": "Feature", "id": 612 , "properties": { "gid": 612, "___idobj": 3.0, "name": "حرم امام حسین علیه السلام",				"theme": 1.0, "libtheme": "CULTURE", "categorie": 101.0}, "geometry": { "type": "Point", "coordinates": [	44.03228673771007 , 32.6163192936406  ]}},
{ "type": "Feature", "id": 613 , "properties": { "gid": 613, "___idobj": 3.0, "name": "حرم حضرت اباالفضل العباس",				"theme": 1.0, "libtheme": "CULTURE", "categorie": 101.0}, "geometry": { "type": "Point", "coordinates": [	44.0359850248717 , 32.61697070541074  ]}},
{ "type": "Feature", "id": 614 , "properties": { "gid": 614, "___idobj": 3.0, "name": "تل الزینبیة",				"theme": 1.0, "libtheme": "CULTURE", "categorie": 101.0}, "geometry": { "type": "Point", "coordinates": [	44.03122651150125 , 32.61596930623955  ]}},
{ "type": "Feature", "id": 615 , "properties": { "gid": 615, "___idobj": 3.0, "name": "خیمگاه امام حسین",				"theme": 1.0, "libtheme": "CULTURE", "categorie": 101.0}, "geometry": { "type": "Point", "coordinates": [	44.03079781840644 , 32.61445311464188  ]}},
{ "type": "Feature", "id": 616 , "properties": { "gid": 616, "___idobj": 3.0, "name": "مقام امام زمان",				"theme": 1.0, "libtheme": "CULTURE", "categorie": 101.0}, "geometry": { "type": "Point", "coordinates": [	44.03511866596423 , 32.6221871897375 ]}},
{ "type": "Feature", "id": 617 , "properties": { "gid": 617, "___idobj": 3.0, "name": "کاظمین - حرم مطهر امام موسی کاظم و امام جواد علیهما السلام",				"theme": 1.0, "libtheme": "CULTURE", "categorie": 101.0}, "geometry": { "type": "Point", "coordinates": [	44.33819831044421 , 33.38026985438474 ]}},

{ "type": "Feature", "id": 802 , "properties": { "gid": 802, "___idobj": 3.0, "name": "مرقد صافی صفا الیمانی",				"theme": 1.0, "libtheme": "CULTURE", "categorie": 101.0}, "geometry": { "type": "Point", "coordinates": [	44.309572 , 31.995098]}},
{ "type": "Feature", "id": 803 , "properties": { "gid": 803, "___idobj": 3.0, "name": "مرقد ایة الله الکلباکانی",				"theme": 1.0, "libtheme": "CULTURE", "categorie": 101.0}, "geometry": { "type": "Point", "coordinates": [	44.311466 , 32.003704]}},
{ "type": "Feature", "id": 804 , "properties": { "gid": 804, "___idobj": 3.0, "name": "مرقد السید الشهید الصدر الثانی",				"theme": 1.0, "libtheme": "CULTURE", "categorie": 101.0}, "geometry": { "type": "Point", "coordinates": [	44.302917 , 32.011999]}},
{ "type": "Feature", "id": 806 , "properties": { "gid": 806, "___idobj": 3.0, "name": "مرقد میثم التمار",				"theme": 1.0, "libtheme": "CULTURE", "categorie": 101.0}, "geometry": { "type": "Point", "coordinates": [	44.394892 , 32.026472]}},
{ "type": "Feature", "id": 807 , "properties": { "gid": 807, "___idobj": 3.0, "name": "مرقد مسلم بن عقیل (ع)",				"theme": 1.0, "libtheme": "CULTURE", "categorie": 101.0}, "geometry": { "type": "Point", "coordinates": [	44.401458 , 32.02891]}},
{ "type": "Feature", "id": 808 , "properties": { "gid": 808, "___idobj": 3.0, "name": "مرقد هانی بن عروه",				"theme": 1.0, "libtheme": "CULTURE", "categorie": 101.0}, "geometry": { "type": "Point", "coordinates": [	44.40132 , 32.029344]}},
{ "type": "Feature", "id": 809 , "properties": { "gid": 809, "___idobj": 3.0, "name": "مرقد حر ریاحی",				"theme": 1.0, "libtheme": "CULTURE", "categorie": 101.0}, "geometry": { "type": "Point", "coordinates": [	43.985237 , 32.651347]}},
{ "type": "Feature", "id": 810 , "properties": { "gid": 810, "___idobj": 3.0, "name": "مرقد سید محمد باقر صدر",				"theme": 1.0, "libtheme": "CULTURE", "categorie": 101.0}, "geometry": { "type": "Point", "coordinates": [	44.323912 , 32.011933]}},
{ "type": "Feature", "id": 811 , "properties": { "gid": 811, "___idobj": 3.0, "name": "مرقد سید ابراهیم (ع)",				"theme": 1.0, "libtheme": "CULTURE", "categorie": 101.0}, "geometry": { "type": "Point", "coordinates": [	44.385008 , 32.025339]}},
{ "type": "Feature", "id": 812 , "properties": { "gid": 812, "___idobj": 3.0, "name": "مرقد الشیخ الرضی",				"theme": 1.0, "libtheme": "CULTURE", "categorie": 101.0}, "geometry": { "type": "Point", "coordinates": [	44.339021 , 33.378782]}},
{ "type": "Feature", "id": 813 , "properties": { "gid": 813, "___idobj": 3.0, "name": "مرقد الشیخ مرتضی",				"theme": 1.0, "libtheme": "CULTURE", "categorie": 101.0}, "geometry": { "type": "Point", "coordinates": [	44.33908 , 33.379078]}},
{ "type": "Feature", "id": 815 , "properties": { "gid": 815, "___idobj": 3.0, "name": "مدفن النبی ادم",				"theme": 1.0, "libtheme": "CULTURE", "categorie": 101.0}, "geometry": { "type": "Point", "coordinates": [	44.341617 , 33.371305]}},
{ "type": "Feature", "id": 816 , "properties": { "gid": 816, "___idobj": 3.0, "name": "مدفن النبی نوح ع",				"theme": 1.0, "libtheme": "CULTURE", "categorie": 101.0}, "geometry": { "type": "Point", "coordinates": [	44.341617 , 33.371305]}},
{ "type": "Feature", "id": 817 , "properties": { "gid": 817, "___idobj": 3.0, "name": "مرقد حبیب بن مظاهر",				"theme": 1.0, "libtheme": "CULTURE", "categorie": 101.0}, "geometry": { "type": "Point", "coordinates": [	44.341617 , 33.371305]}},
{ "type": "Feature", "id": 818 , "properties": { "gid": 818, "___idobj": 3.0, "name": "مرقد المختار الثقفی",				"theme": 1.0, "libtheme": "CULTURE", "categorie": 101.0}, "geometry": { "type": "Point", "coordinates": [	44.401318 , 32.029343]}},
{ "type": "Feature", "id": 819 , "properties": { "gid": 819, "___idobj": 3.0, "name": "مرقد سلمان المحمدی",				"theme": 1.0, "libtheme": "CULTURE", "categorie": 101.0}, "geometry": { "type": "Point", "coordinates": [	44.581227 , 33.098484]}},
{ "type": "Feature", "id": 820 , "properties": { "gid": 820, "___idobj": 3.0, "name": "مرقد حکیمة خاتون ع",				"theme": 1.0, "libtheme": "CULTURE", "categorie": 101.0}, "geometry": { "type": "Point", "coordinates": [	43.873441 , 34.198762]}},
{ "type": "Feature", "id": 821 , "properties": { "gid": 821, "___idobj": 3.0, "name": "مرقد نرجس خاتون ع)",				"theme": 1.0, "libtheme": "CULTURE", "categorie": 101.0}, "geometry": { "type": "Point", "coordinates": [	43.873441 , 34.198762]}},
{ "type": "Feature", "id": 822 , "properties": { "gid": 822, "___idobj": 3.0, "name": "مرقد سید محمد (ع)",				"theme": 1.0, "libtheme": "CULTURE", "categorie": 101.0}, "geometry": { "type": "Point", "coordinates": [	44.192934 , 33.996081]}},






{ "type": "Feature", "id": 619 , "properties": { "gid": 619, "___idobj": 3.0, "name": "1",				"theme": 1.0, "libtheme": "CULTURE", "categorie": 107.0}, "geometry": { "type": "Point", "coordinates": [	44.31901018 , 32.06145077 ]}},
{ "type": "Feature", "id": 620 , "properties": { "gid": 620, "___idobj": 3.0, "name": "10",				"theme": 1.0, "libtheme": "CULTURE", "categorie": 107.0}, "geometry": { "type": "Point", "coordinates": [	44.31917002 , 32.06572127 ]}},
{ "type": "Feature", "id": 621 , "properties": { "gid": 621, "___idobj": 3.0, "name": "17",				"theme": 1.0, "libtheme": "CULTURE", "categorie": 107.0}, "geometry": { "type": "Point", "coordinates": [	44.05813443 , 32.56602625 ]}},
{ "type": "Feature", "id": 622 , "properties": { "gid": 622, "___idobj": 3.0, "name": "18",				"theme": 1.0, "libtheme": "CULTURE", "categorie": 107.0}, "geometry": { "type": "Point", "coordinates": [	44.06516299 , 32.56181929 ]}},
{ "type": "Feature", "id": 623 , "properties": { "gid": 623, "___idobj": 3.0, "name": "20",				"theme": 1.0, "libtheme": "CULTURE", "categorie": 107.0}, "geometry": { "type": "Point", "coordinates": [	44.31957127 , 32.07007835 ]}},
{ "type": "Feature", "id": 624 , "properties": { "gid": 624, "___idobj": 3.0, "name": "30",				"theme": 1.0, "libtheme": "CULTURE", "categorie": 107.0}, "geometry": { "type": "Point", "coordinates": [	44.32001098 , 32.07448689 ]}},
{ "type": "Feature", "id": 625 , "properties": { "gid": 625, "___idobj": 3.0, "name": "40",				"theme": 1.0, "libtheme": "CULTURE", "categorie": 107.0}, "geometry": { "type": "Point", "coordinates": [	44.32054608 , 32.07905754 ]}},
{ "type": "Feature", "id": 626 , "properties": { "gid": 626, "___idobj": 3.0, "name": "50",				"theme": 1.0, "libtheme": "CULTURE", "categorie": 107.0}, "geometry": { "type": "Point", "coordinates": [	44.32090625 , 32.08367882 ]}},
{ "type": "Feature", "id": 627 , "properties": { "gid": 627, "___idobj": 3.0, "name": "60",				"theme": 1.0, "libtheme": "CULTURE", "categorie": 107.0}, "geometry": { "type": "Point", "coordinates": [	44.32131805 , 32.08821528 ]}},
{ "type": "Feature", "id": 628 , "properties": { "gid": 628, "___idobj": 3.0, "name": "70",				"theme": 1.0, "libtheme": "CULTURE", "categorie": 107.0}, "geometry": { "type": "Point", "coordinates": [	44.32174511 , 32.09283102 ]}},
{ "type": "Feature", "id": 629 , "properties": { "gid": 629, "___idobj": 3.0, "name": "80",				"theme": 1.0, "libtheme": "CULTURE", "categorie": 107.0}, "geometry": { "type": "Point", "coordinates": [	44.32186791 , 32.09737049 ]}},
{ "type": "Feature", "id": 630 , "properties": { "gid": 630, "___idobj": 3.0, "name": "90",				"theme": 1.0, "libtheme": "CULTURE", "categorie": 107.0}, "geometry": { "type": "Point", "coordinates": [	44.32260032 , 32.10189178 ]}},
{ "type": "Feature", "id": 631 , "properties": { "gid": 631, "___idobj": 3.0, "name": "100",				"theme": 1.0, "libtheme": "CULTURE", "categorie": 107.0}, "geometry": { "type": "Point", "coordinates": [	44.3232189 , 32.10639998 ]}},
{ "type": "Feature", "id": 632 , "properties": { "gid": 632, "___idobj": 3.0, "name": "110",				"theme": 1.0, "libtheme": "CULTURE", "categorie": 107.0}, "geometry": { "type": "Point", "coordinates": [	44.32370204 , 32.11100039 ]}},
{ "type": "Feature", "id": 633 , "properties": { "gid": 633, "___idobj": 3.0, "name": "120",				"theme": 1.0, "libtheme": "CULTURE", "categorie": 107.0}, "geometry": { "type": "Point", "coordinates": [	44.32390639 , 32.11549787 ]}},
{ "type": "Feature", "id": 634 , "properties": { "gid": 634, "___idobj": 3.0, "name": "130",				"theme": 1.0, "libtheme": "CULTURE", "categorie": 107.0}, "geometry": { "type": "Point", "coordinates": [	44.32449371 , 32.12006198 ]}},
{ "type": "Feature", "id": 635 , "properties": { "gid": 635, "___idobj": 3.0, "name": "140",				"theme": 1.0, "libtheme": "CULTURE", "categorie": 107.0}, "geometry": { "type": "Point", "coordinates": [	44.32385484 , 32.11287609 ]}},
{ "type": "Feature", "id": 636 , "properties": { "gid": 636, "___idobj": 3.0, "name": "141",				"theme": 1.0, "libtheme": "CULTURE", "categorie": 107.0}, "geometry": { "type": "Point", "coordinates": [	44.32304045 , 32.10510691 ]}},
{ "type": "Feature", "id": 637 , "properties": { "gid": 637, "___idobj": 3.0, "name": "142",				"theme": 1.0, "libtheme": "CULTURE", "categorie": 107.0}, "geometry": { "type": "Point", "coordinates": [	44.30733704 , 32.19336273 ]}},
{ "type": "Feature", "id": 638 , "properties": { "gid": 638, "___idobj": 3.0, "name": "143",				"theme": 1.0, "libtheme": "CULTURE", "categorie": 107.0}, "geometry": { "type": "Point", "coordinates": [	44.30094358 , 32.21162824 ]}},
{ "type": "Feature", "id": 639 , "properties": { "gid": 639, "___idobj": 3.0, "name": "144",				"theme": 1.0, "libtheme": "CULTURE", "categorie": 107.0}, "geometry": { "type": "Point", "coordinates": [	44.02465057 , 32.58498092 ]}},
{ "type": "Feature", "id": 640 , "properties": { "gid": 640, "___idobj": 3.0, "name": "150",				"theme": 1.0, "libtheme": "CULTURE", "categorie": 107.0}, "geometry": { "type": "Point", "coordinates": [	44.32526032 , 32.12939951 ]}},
{ "type": "Feature", "id": 641 , "properties": { "gid": 641, "___idobj": 3.0, "name": "160",				"theme": 1.0, "libtheme": "CULTURE", "categorie": 107.0}, "geometry": { "type": "Point", "coordinates": [	44.32570925 , 32.13387561 ]}},
{ "type": "Feature", "id": 642 , "properties": { "gid": 642, "___idobj": 3.0, "name": "170",				"theme": 1.0, "libtheme": "CULTURE", "categorie": 107.0}, "geometry": { "type": "Point", "coordinates": [	44.3260421 , 32.13849714 ]}},
{ "type": "Feature", "id": 643 , "properties": { "gid": 643, "___idobj": 3.0, "name": "180",				"theme": 1.0, "libtheme": "CULTURE", "categorie": 107.0}, "geometry": { "type": "Point", "coordinates": [	44.32501355 , 32.14258038 ]}},
{ "type": "Feature", "id": 644 , "properties": { "gid": 644, "___idobj": 3.0, "name": "190",				"theme": 1.0, "libtheme": "CULTURE", "categorie": 107.0}, "geometry": { "type": "Point", "coordinates": [	44.32329887 , 32.14710326 ]}},
{ "type": "Feature", "id": 645 , "properties": { "gid": 645, "___idobj": 3.0, "name": "195",				"theme": 1.0, "libtheme": "CULTURE", "categorie": 107.0}, "geometry": { "type": "Point", "coordinates": [	44.32315964 , 32.14896471 ]}},
{ "type": "Feature", "id": 646 , "properties": { "gid": 646, "___idobj": 3.0, "name": "200",				"theme": 1.0, "libtheme": "CULTURE", "categorie": 107.0}, "geometry": { "type": "Point", "coordinates": [	44.32204485 , 32.15117209 ]}},
{ "type": "Feature", "id": 647 , "properties": { "gid": 647, "___idobj": 3.0, "name": "210",				"theme": 1.0, "libtheme": "CULTURE", "categorie": 107.0}, "geometry": { "type": "Point", "coordinates": [	44.32039722 , 32.15554912 ]}},
{ "type": "Feature", "id": 648 , "properties": { "gid": 648, "___idobj": 3.0, "name": "220",				"theme": 1.0, "libtheme": "CULTURE", "categorie": 107.0}, "geometry": { "type": "Point", "coordinates": [	44.31861145 , 32.15992246 ]}},
{ "type": "Feature", "id": 649 , "properties": { "gid": 649, "___idobj": 3.0, "name": "230",				"theme": 1.0, "libtheme": "CULTURE", "categorie": 107.0}, "geometry": { "type": "Point", "coordinates": [	44.31721268 , 32.1642528 ]}},
{ "type": "Feature", "id": 650 , "properties": { "gid": 650, "___idobj": 3.0, "name": "244",				"theme": 1.0, "libtheme": "CULTURE", "categorie": 107.0}, "geometry": { "type": "Point", "coordinates": [	44.31516054 , 32.17010069 ]}},
{ "type": "Feature", "id": 651 , "properties": { "gid": 651, "___idobj": 3.0, "name": "247",				"theme": 1.0, "libtheme": "CULTURE", "categorie": 107.0}, "geometry": { "type": "Point", "coordinates": [	44.31449904 , 32.17194512 ]}},
{ "type": "Feature", "id": 652 , "properties": { "gid": 652, "___idobj": 3.0, "name": "250",				"theme": 1.0, "libtheme": "CULTURE", "categorie": 107.0}, "geometry": { "type": "Point", "coordinates": [	44.31384165 , 32.17316084 ]}},
{ "type": "Feature", "id": 653 , "properties": { "gid": 653, "___idobj": 3.0, "name": "257",				"theme": 1.0, "libtheme": "CULTURE", "categorie": 107.0}, "geometry": { "type": "Point", "coordinates": [	44.31298703 , 32.17618972 ]}},
{ "type": "Feature", "id": 654 , "properties": { "gid": 654, "___idobj": 3.0, "name": "260",				"theme": 1.0, "libtheme": "CULTURE", "categorie": 107.0}, "geometry": { "type": "Point", "coordinates": [	44.31229963 , 32.17743821 ]}},
{ "type": "Feature", "id": 655 , "properties": { "gid": 655, "___idobj": 3.0, "name": "270",				"theme": 1.0, "libtheme": "CULTURE", "categorie": 107.0}, "geometry": { "type": "Point", "coordinates": [	44.31087177 , 32.1817481 ]}},
{ "type": "Feature", "id": 656 , "properties": { "gid": 656, "___idobj": 3.0, "name": "280",				"theme": 1.0, "libtheme": "CULTURE", "categorie": 107.0}, "geometry": { "type": "Point", "coordinates": [	44.30919858 , 32.18614424 ]}},
{ "type": "Feature", "id": 657 , "properties": { "gid": 657, "___idobj": 3.0, "name": "290",				"theme": 1.0, "libtheme": "CULTURE", "categorie": 107.0}, "geometry": { "type": "Point", "coordinates": [	44.30880605 , 32.19018951 ]}},
{ "type": "Feature", "id": 658 , "properties": { "gid": 658, "___idobj": 3.0, "name": "300",				"theme": 1.0, "libtheme": "CULTURE", "categorie": 107.0}, "geometry": { "type": "Point", "coordinates": [	44.30660983 , 32.1950076 ]}},
{ "type": "Feature", "id": 659 , "properties": { "gid": 659, "___idobj": 3.0, "name": "313",				"theme": 1.0, "libtheme": "CULTURE", "categorie": 107.0}, "geometry": { "type": "Point", "coordinates": [	44.30534542 , 32.2002882 ]}},
{ "type": "Feature", "id": 660 , "properties": { "gid": 660, "___idobj": 3.0, "name": "330",				"theme": 1.0, "libtheme": "CULTURE", "categorie": 107.0}, "geometry": { "type": "Point", "coordinates": [	44.30220388 , 32.20792897 ]}},
{ "type": "Feature", "id": 661 , "properties": { "gid": 661, "___idobj": 3.0, "name": "340",				"theme": 1.0, "libtheme": "CULTURE", "categorie": 107.0}, "geometry": { "type": "Point", "coordinates": [	44.30054594 , 32.21234506 ]}},
{ "type": "Feature", "id": 662 , "properties": { "gid": 662, "___idobj": 3.0, "name": "350",				"theme": 1.0, "libtheme": "CULTURE", "categorie": 107.0}, "geometry": { "type": "Point", "coordinates": [	44.29940089 , 32.21640131 ]}},
{ "type": "Feature", "id": 663 , "properties": { "gid": 663, "___idobj": 3.0, "name": "360",				"theme": 1.0, "libtheme": "CULTURE", "categorie": 107.0}, "geometry": { "type": "Point", "coordinates": [	44.2975142 , 32.22123398 ]}},
{ "type": "Feature", "id": 664 , "properties": { "gid": 664, "___idobj": 3.0, "name": "367",				"theme": 1.0, "libtheme": "CULTURE", "categorie": 107.0}, "geometry": { "type": "Point", "coordinates": [	44.29684038 , 32.22420621 ]}},
{ "type": "Feature", "id": 665 , "properties": { "gid": 665, "___idobj": 3.0, "name": "370",				"theme": 1.0, "libtheme": "CULTURE", "categorie": 107.0}, "geometry": { "type": "Point", "coordinates": [	44.29613027 , 32.22550339 ]}},
{ "type": "Feature", "id": 666 , "properties": { "gid": 666, "___idobj": 3.0, "name": "380",				"theme": 1.0, "libtheme": "CULTURE", "categorie": 107.0}, "geometry": { "type": "Point", "coordinates": [	44.29490659 , 32.22973726 ]}},
{ "type": "Feature", "id": 667 , "properties": { "gid": 667, "___idobj": 3.0, "name": "390",				"theme": 1.0, "libtheme": "CULTURE", "categorie": 107.0}, "geometry": { "type": "Point", "coordinates": [	44.29322787 , 32.23418042 ]}},
{ "type": "Feature", "id": 668 , "properties": { "gid": 668, "___idobj": 3.0, "name": "400",				"theme": 1.0, "libtheme": "CULTURE", "categorie": 107.0}, "geometry": { "type": "Point", "coordinates": [	44.29175952 , 32.23855779 ]}},
{ "type": "Feature", "id": 669 , "properties": { "gid": 669, "___idobj": 3.0, "name": "410",				"theme": 1.0, "libtheme": "CULTURE", "categorie": 107.0}, "geometry": { "type": "Point", "coordinates": [	44.29026067 , 32.24293582 ]}},
{ "type": "Feature", "id": 670 , "properties": { "gid": 670, "___idobj": 3.0, "name": "430",				"theme": 1.0, "libtheme": "CULTURE", "categorie": 107.0}, "geometry": { "type": "Point", "coordinates": [	44.28727554 , 32.25171654 ]}},
{ "type": "Feature", "id": 671 , "properties": { "gid": 671, "___idobj": 3.0, "name": "440",				"theme": 1.0, "libtheme": "CULTURE", "categorie": 107.0}, "geometry": { "type": "Point", "coordinates": [	44.28575976 , 32.2561198 ]}},
{ "type": "Feature", "id": 672 , "properties": { "gid": 672, "___idobj": 3.0, "name": "455",				"theme": 1.0, "libtheme": "CULTURE", "categorie": 107.0}, "geometry": { "type": "Point", "coordinates": [	44.2840843 , 32.26275642 ]}},
{ "type": "Feature", "id": 673 , "properties": { "gid": 673, "___idobj": 3.0, "name": "460",				"theme": 1.0, "libtheme": "CULTURE", "categorie": 107.0}, "geometry": { "type": "Point", "coordinates": [	44.28347494 , 32.2649317 ]}},
{ "type": "Feature", "id": 674 , "properties": { "gid": 674, "___idobj": 3.0, "name": "480",				"theme": 1.0, "libtheme": "CULTURE", "categorie": 107.0}, "geometry": { "type": "Point", "coordinates": [	44.28172982 , 32.27386806 ]}},
{ "type": "Feature", "id": 675 , "properties": { "gid": 675, "___idobj": 3.0, "name": "490",				"theme": 1.0, "libtheme": "CULTURE", "categorie": 107.0}, "geometry": { "type": "Point", "coordinates": [	44.28103865 , 32.27826186 ]}},
{ "type": "Feature", "id": 676 , "properties": { "gid": 676, "___idobj": 3.0, "name": "500",				"theme": 1.0, "libtheme": "CULTURE", "categorie": 107.0}, "geometry": { "type": "Point", "coordinates": [	44.27999661 , 32.28275171 ]}},
{ "type": "Feature", "id": 677 , "properties": { "gid": 677, "___idobj": 3.0, "name": "510",				"theme": 1.0, "libtheme": "CULTURE", "categorie": 107.0}, "geometry": { "type": "Point", "coordinates": [	44.27909698 , 32.28726159 ]}},
{ "type": "Feature", "id": 678 , "properties": { "gid": 678, "___idobj": 3.0, "name": "530",				"theme": 1.0, "libtheme": "CULTURE", "categorie": 107.0}, "geometry": { "type": "Point", "coordinates": [	44.27671175 , 32.29631865 ]}},
{ "type": "Feature", "id": 679 , "properties": { "gid": 679, "___idobj": 3.0, "name": "540",				"theme": 1.0, "libtheme": "CULTURE", "categorie": 107.0}, "geometry": { "type": "Point", "coordinates": [	44.27558354 , 32.30067926 ]}},
{ "type": "Feature", "id": 680 , "properties": { "gid": 680, "___idobj": 3.0, "name": "550",				"theme": 1.0, "libtheme": "CULTURE", "categorie": 107.0}, "geometry": { "type": "Point", "coordinates": [	44.2744001 , 32.30518268 ]}},
{ "type": "Feature", "id": 681 , "properties": { "gid": 681, "___idobj": 3.0, "name": "560",				"theme": 1.0, "libtheme": "CULTURE", "categorie": 107.0}, "geometry": { "type": "Point", "coordinates": [	44.27335488 , 32.30920717 ]}},
{ "type": "Feature", "id": 682 , "properties": { "gid": 682, "___idobj": 3.0, "name": "570",				"theme": 1.0, "libtheme": "CULTURE", "categorie": 107.0}, "geometry": { "type": "Point", "coordinates": [	44.27218057 , 32.3135179 ]}},
{ "type": "Feature", "id": 683 , "properties": { "gid": 683, "___idobj": 3.0, "name": "578",				"theme": 1.0, "libtheme": "CULTURE", "categorie": 107.0}, "geometry": { "type": "Point", "coordinates": [	44.27123099 , 32.31685247 ]}},
{ "type": "Feature", "id": 684 , "properties": { "gid": 684, "___idobj": 3.0, "name": "580",				"theme": 1.0, "libtheme": "CULTURE", "categorie": 107.0}, "geometry": { "type": "Point", "coordinates": [	44.27077359 , 32.31746318 ]}},
{ "type": "Feature", "id": 685 , "properties": { "gid": 685, "___idobj": 3.0, "name": "600",				"theme": 1.0, "libtheme": "CULTURE", "categorie": 107.0}, "geometry": { "type": "Point", "coordinates": [	44.26459453 , 32.32410114 ]}},
{ "type": "Feature", "id": 686 , "properties": { "gid": 686, "___idobj": 3.0, "name": "610",				"theme": 1.0, "libtheme": "CULTURE", "categorie": 107.0}, "geometry": { "type": "Point", "coordinates": [	44.26120874 , 32.32749674 ]}},
{ "type": "Feature", "id": 687 , "properties": { "gid": 687, "___idobj": 3.0, "name": "620",				"theme": 1.0, "libtheme": "CULTURE", "categorie": 107.0}, "geometry": { "type": "Point", "coordinates": [	44.25769128 , 32.33102728 ]}},
{ "type": "Feature", "id": 688 , "properties": { "gid": 688, "___idobj": 3.0, "name": "640",				"theme": 1.0, "libtheme": "CULTURE", "categorie": 107.0}, "geometry": { "type": "Point", "coordinates": [	44.25099598 , 32.33811719 ]}},
{ "type": "Feature", "id": 689 , "properties": { "gid": 689, "___idobj": 3.0, "name": "650",				"theme": 1.0, "libtheme": "CULTURE", "categorie": 107.0}, "geometry": { "type": "Point", "coordinates": [	44.24762252 , 32.34161505 ]}},
{ "type": "Feature", "id": 690 , "properties": { "gid": 690, "___idobj": 3.0, "name": "660",				"theme": 1.0, "libtheme": "CULTURE", "categorie": 107.0}, "geometry": { "type": "Point", "coordinates": [	44.24412089 , 32.34500242 ]}},
{ "type": "Feature", "id": 691 , "properties": { "gid": 691, "___idobj": 3.0, "name": "670",				"theme": 1.0, "libtheme": "CULTURE", "categorie": 107.0}, "geometry": { "type": "Point", "coordinates": [	44.24102051 , 32.34868191 ]}},
{ "type": "Feature", "id": 692 , "properties": { "gid": 692, "___idobj": 3.0, "name": "680",				"theme": 1.0, "libtheme": "CULTURE", "categorie": 107.0}, "geometry": { "type": "Point", "coordinates": [	44.23828692 , 32.35249828 ]}},
{ "type": "Feature", "id": 693 , "properties": { "gid": 693, "___idobj": 3.0, "name": "690",				"theme": 1.0, "libtheme": "CULTURE", "categorie": 107.0}, "geometry": { "type": "Point", "coordinates": [	44.23550036 , 32.35640047 ]}},
{ "type": "Feature", "id": 694 , "properties": { "gid": 694, "___idobj": 3.0, "name": "700",				"theme": 1.0, "libtheme": "CULTURE", "categorie": 107.0}, "geometry": { "type": "Point", "coordinates": [	44.23273777 , 32.36021692 ]}},
{ "type": "Feature", "id": 695 , "properties": { "gid": 695, "___idobj": 3.0, "name": "710",				"theme": 1.0, "libtheme": "CULTURE", "categorie": 107.0}, "geometry": { "type": "Point", "coordinates": [	44.22984769 , 32.36425214 ]}},
{ "type": "Feature", "id": 696 , "properties": { "gid": 696, "___idobj": 3.0, "name": "720",				"theme": 1.0, "libtheme": "CULTURE", "categorie": 107.0}, "geometry": { "type": "Point", "coordinates": [	44.22732348 , 32.36814427 ]}},
{ "type": "Feature", "id": 697 , "properties": { "gid": 697, "___idobj": 3.0, "name": "750",				"theme": 1.0, "libtheme": "CULTURE", "categorie": 107.0}, "geometry": { "type": "Point", "coordinates": [	44.21877184 , 32.37965439 ]}},
{ "type": "Feature", "id": 698 , "properties": { "gid": 698, "___idobj": 3.0, "name": "756",				"theme": 1.0, "libtheme": "CULTURE", "categorie": 107.0}, "geometry": { "type": "Point", "coordinates": [	44.21790943 , 32.38196561 ]}},
{ "type": "Feature", "id": 699 , "properties": { "gid": 699, "___idobj": 3.0, "name": "760",				"theme": 1.0, "libtheme": "CULTURE", "categorie": 107.0}, "geometry": { "type": "Point", "coordinates": [	44.21600439 , 32.38353219 ]}},
{ "type": "Feature", "id": 700 , "properties": { "gid": 700, "___idobj": 3.0, "name": "770",				"theme": 1.0, "libtheme": "CULTURE", "categorie": 107.0}, "geometry": { "type": "Point", "coordinates": [	44.21321087 , 32.38742081 ]}},
{ "type": "Feature", "id": 701 , "properties": { "gid": 701, "___idobj": 3.0, "name": "780",				"theme": 1.0, "libtheme": "CULTURE", "categorie": 107.0}, "geometry": { "type": "Point", "coordinates": [	44.21050259 , 32.39120205 ]}},
{ "type": "Feature", "id": 702 , "properties": { "gid": 702, "___idobj": 3.0, "name": "790",				"theme": 1.0, "libtheme": "CULTURE", "categorie": 107.0}, "geometry": { "type": "Point", "coordinates": [	44.20770538 , 32.39508966 ]}},
{ "type": "Feature", "id": 703 , "properties": { "gid": 703, "___idobj": 3.0, "name": "798",				"theme": 1.0, "libtheme": "CULTURE", "categorie": 107.0}, "geometry": { "type": "Point", "coordinates": [	44.20613394 , 32.39742109 ]}},
{ "type": "Feature", "id": 704 , "properties": { "gid": 704, "___idobj": 3.0, "name": "800",				"theme": 1.0, "libtheme": "CULTURE", "categorie": 107.0}, "geometry": { "type": "Point", "coordinates": [	44.20488018 , 32.39897241 ]}},
{ "type": "Feature", "id": 705 , "properties": { "gid": 705, "___idobj": 3.0, "name": "813",				"theme": 1.0, "libtheme": "CULTURE", "categorie": 107.0}, "geometry": { "type": "Point", "coordinates": [	44.20204039 , 32.40392293 ]}},
{ "type": "Feature", "id": 706 , "properties": { "gid": 706, "___idobj": 3.0, "name": "820",				"theme": 1.0, "libtheme": "CULTURE", "categorie": 107.0}, "geometry": { "type": "Point", "coordinates": [	44.19927671 , 32.40672944 ]}},
{ "type": "Feature", "id": 707 , "properties": { "gid": 707, "___idobj": 3.0, "name": "830",				"theme": 1.0, "libtheme": "CULTURE", "categorie": 107.0}, "geometry": { "type": "Point", "coordinates": [	44.19667496 , 32.410349 ]}},
{ "type": "Feature", "id": 708 , "properties": { "gid": 708, "___idobj": 3.0, "name": "840",				"theme": 1.0, "libtheme": "CULTURE", "categorie": 107.0}, "geometry": { "type": "Point", "coordinates": [	44.19388002 , 32.41424868 ]}},
{ "type": "Feature", "id": 709 , "properties": { "gid": 709, "___idobj": 3.0, "name": "860",				"theme": 1.0, "libtheme": "CULTURE", "categorie": 107.0}, "geometry": { "type": "Point", "coordinates": [	44.18850772 , 32.42178719 ]}},
{ "type": "Feature", "id": 710 , "properties": { "gid": 710, "___idobj": 3.0, "name": "870",				"theme": 1.0, "libtheme": "CULTURE", "categorie": 107.0}, "geometry": { "type": "Point", "coordinates": [	44.18635139 , 32.42565318 ]}},
{ "type": "Feature", "id": 711 , "properties": { "gid": 711, "___idobj": 3.0, "name": "880",				"theme": 1.0, "libtheme": "CULTURE", "categorie": 107.0}, "geometry": { "type": "Point", "coordinates": [	44.18291448 , 32.42959192 ]}},
{ "type": "Feature", "id": 712 , "properties": { "gid": 712, "___idobj": 3.0, "name": "890",				"theme": 1.0, "libtheme": "CULTURE", "categorie": 107.0}, "geometry": { "type": "Point", "coordinates": [	44.17997067 , 32.43400466 ]}},
{ "type": "Feature", "id": 713 , "properties": { "gid": 713, "___idobj": 3.0, "name": "900",				"theme": 1.0, "libtheme": "CULTURE", "categorie": 107.0}, "geometry": { "type": "Point", "coordinates": [	44.17765374 , 32.43750745 ]}},
{ "type": "Feature", "id": 714 , "properties": { "gid": 714, "___idobj": 3.0, "name": "910",				"theme": 1.0, "libtheme": "CULTURE", "categorie": 107.0}, "geometry": { "type": "Point", "coordinates": [	44.17576161 , 32.44152348 ]}},
{ "type": "Feature", "id": 715 , "properties": { "gid": 715, "___idobj": 3.0, "name": "920",				"theme": 1.0, "libtheme": "CULTURE", "categorie": 107.0}, "geometry": { "type": "Point", "coordinates": [	44.17280163 , 32.44552148 ]}},
{ "type": "Feature", "id": 716 , "properties": { "gid": 716, "___idobj": 3.0, "name": "928",				"theme": 1.0, "libtheme": "CULTURE", "categorie": 107.0}, "geometry": { "type": "Point", "coordinates": [	44.17125106 , 32.44913047 ]}},
{ "type": "Feature", "id": 717 , "properties": { "gid": 717, "___idobj": 3.0, "name": "940",				"theme": 1.0, "libtheme": "CULTURE", "categorie": 107.0}, "geometry": { "type": "Point", "coordinates": [	44.16795035 , 32.45350029 ]}},
{ "type": "Feature", "id": 718 , "properties": { "gid": 718, "___idobj": 3.0, "name": "950",				"theme": 1.0, "libtheme": "CULTURE", "categorie": 107.0}, "geometry": { "type": "Point", "coordinates": [	44.16551532 , 32.45751053 ]}},
{ "type": "Feature", "id": 719 , "properties": { "gid": 719, "___idobj": 3.0, "name": "960",				"theme": 1.0, "libtheme": "CULTURE", "categorie": 107.0}, "geometry": { "type": "Point", "coordinates": [	44.16302833 , 32.46153787 ]}},
{ "type": "Feature", "id": 720 , "properties": { "gid": 720, "___idobj": 3.0, "name": "970",				"theme": 1.0, "libtheme": "CULTURE", "categorie": 107.0}, "geometry": { "type": "Point", "coordinates": [	44.16060881 , 32.46581834 ]}},
{ "type": "Feature", "id": 721 , "properties": { "gid": 721, "___idobj": 3.0, "name": "980",				"theme": 1.0, "libtheme": "CULTURE", "categorie": 107.0}, "geometry": { "type": "Point", "coordinates": [	44.15803028 , 32.46987795 ]}},
{ "type": "Feature", "id": 722 , "properties": { "gid": 722, "___idobj": 3.0, "name": "986",				"theme": 1.0, "libtheme": "CULTURE", "categorie": 107.0}, "geometry": { "type": "Point", "coordinates": [	44.15692974 , 32.47252529 ]}},
{ "type": "Feature", "id": 723 , "properties": { "gid": 723, "___idobj": 3.0, "name": "997",				"theme": 1.0, "libtheme": "CULTURE", "categorie": 107.0}, "geometry": { "type": "Point", "coordinates": [	44.15428818 , 32.47703877 ]}},
{ "type": "Feature", "id": 724 , "properties": { "gid": 724, "___idobj": 3.0, "name": "1000",				"theme": 1.0, "libtheme": "CULTURE", "categorie": 107.0}, "geometry": { "type": "Point", "coordinates": [	44.15314967 , 32.47790948 ]}},
{ "type": "Feature", "id": 725 , "properties": { "gid": 725, "___idobj": 3.0, "name": "1030",				"theme": 1.0, "libtheme": "CULTURE", "categorie": 107.0}, "geometry": { "type": "Point", "coordinates": [	44.14609605 , 32.489819 ]}},
{ "type": "Feature", "id": 726 , "properties": { "gid": 726, "___idobj": 3.0, "name": "1040",				"theme": 1.0, "libtheme": "CULTURE", "categorie": 107.0}, "geometry": { "type": "Point", "coordinates": [	44.14292417 , 32.49373469 ]}},
{ "type": "Feature", "id": 727 , "properties": { "gid": 727, "___idobj": 3.0, "name": "1060",				"theme": 1.0, "libtheme": "CULTURE", "categorie": 107.0}, "geometry": { "type": "Point", "coordinates": [	44.1363717 , 32.50099517 ]}},
{ "type": "Feature", "id": 728 , "properties": { "gid": 728, "___idobj": 3.0, "name": "1070",				"theme": 1.0, "libtheme": "CULTURE", "categorie": 107.0}, "geometry": { "type": "Point", "coordinates": [	44.13322555 , 32.50454147 ]}},
{ "type": "Feature", "id": 729 , "properties": { "gid": 729, "___idobj": 3.0, "name": "1092",				"theme": 1.0, "libtheme": "CULTURE", "categorie": 107.0}, "geometry": { "type": "Point", "coordinates": [	44.12637326 , 32.51249313 ]}},
{ "type": "Feature", "id": 730 , "properties": { "gid": 730, "___idobj": 3.0, "name": "1100",				"theme": 1.0, "libtheme": "CULTURE", "categorie": 107.0}, "geometry": { "type": "Point", "coordinates": [	44.12360547 , 32.51525581 ]}},
{ "type": "Feature", "id": 731 , "properties": { "gid": 731, "___idobj": 3.0, "name": "1110",				"theme": 1.0, "libtheme": "CULTURE", "categorie": 107.0}, "geometry": { "type": "Point", "coordinates": [	44.12030208 , 32.51897159 ]}},
{ "type": "Feature", "id": 732 , "properties": { "gid": 732, "___idobj": 3.0, "name": "1120",				"theme": 1.0, "libtheme": "CULTURE", "categorie": 107.0}, "geometry": { "type": "Point", "coordinates": [	44.11361659 , 32.52648538 ]}},
{ "type": "Feature", "id": 733 , "properties": { "gid": 733, "___idobj": 3.0, "name": "1150",				"theme": 1.0, "libtheme": "CULTURE", "categorie": 107.0}, "geometry": { "type": "Point", "coordinates": [	44.10718541 , 32.53346943 ]}},
{ "type": "Feature", "id": 734 , "properties": { "gid": 734, "___idobj": 3.0, "name": "1170",				"theme": 1.0, "libtheme": "CULTURE", "categorie": 107.0}, "geometry": { "type": "Point", "coordinates": [	44.09861432 , 32.53929578 ]}},
{ "type": "Feature", "id": 735 , "properties": { "gid": 735, "___idobj": 3.0, "name": "1180",				"theme": 1.0, "libtheme": "CULTURE", "categorie": 107.0}, "geometry": { "type": "Point", "coordinates": [	44.09438163 , 32.54210665 ]}},
{ "type": "Feature", "id": 736 , "properties": { "gid": 736, "___idobj": 3.0, "name": "1190",				"theme": 1.0, "libtheme": "CULTURE", "categorie": 107.0}, "geometry": { "type": "Point", "coordinates": [	44.0903403 , 32.54485373 ]}},
{ "type": "Feature", "id": 737 , "properties": { "gid": 737, "___idobj": 3.0, "name": "1200",				"theme": 1.0, "libtheme": "CULTURE", "categorie": 107.0}, "geometry": { "type": "Point", "coordinates": [	44.08603837 , 32.54784607 ]}},
{ "type": "Feature", "id": 738 , "properties": { "gid": 738, "___idobj": 3.0, "name": "1220",				"theme": 1.0, "libtheme": "CULTURE", "categorie": 107.0}, "geometry": { "type": "Point", "coordinates": [	44.07841494 , 32.5528442 ]}},
{ "type": "Feature", "id": 739 , "properties": { "gid": 739, "___idobj": 3.0, "name": "1250",				"theme": 1.0, "libtheme": "CULTURE", "categorie": 107.0}, "geometry": { "type": "Point", "coordinates": [	44.06856344 , 32.55963849 ]}},
{ "type": "Feature", "id": 740 , "properties": { "gid": 740, "___idobj": 3.0, "name": "1260",				"theme": 1.0, "libtheme": "CULTURE", "categorie": 107.0}, "geometry": { "type": "Point", "coordinates": [	44.0653054 , 32.56183974 ]}},
{ "type": "Feature", "id": 741 , "properties": { "gid": 741, "___idobj": 3.0, "name": "1270",				"theme": 1.0, "libtheme": "CULTURE", "categorie": 107.0}, "geometry": { "type": "Point", "coordinates": [	44.06184836 , 32.56405349 ]}},
{ "type": "Feature", "id": 742 , "properties": { "gid": 742, "___idobj": 3.0, "name": "1280",				"theme": 1.0, "libtheme": "CULTURE", "categorie": 107.0}, "geometry": { "type": "Point", "coordinates": [	44.05829092 , 32.56615173 ]}},
{ "type": "Feature", "id": 743 , "properties": { "gid": 743, "___idobj": 3.0, "name": "1290",				"theme": 1.0, "libtheme": "CULTURE", "categorie": 107.0}, "geometry": { "type": "Point", "coordinates": [	44.0544717 , 32.56815115 ]}},
{ "type": "Feature", "id": 744 , "properties": { "gid": 744, "___idobj": 3.0, "name": "1340",				"theme": 1.0, "libtheme": "CULTURE", "categorie": 107.0}, "geometry": { "type": "Point", "coordinates": [	44.03668983 , 32.57864068 ]}},
{ "type": "Feature", "id": 745 , "properties": { "gid": 745, "___idobj": 3.0, "name": "100N",				"theme": 1.0, "libtheme": "CULTURE", "categorie": 107.0}, "geometry": { "type": "Point", "coordinates": [	44.32390337 , 32.02714431 ]}},
{ "type": "Feature", "id": 746 , "properties": { "gid": 746, "___idobj": 3.0, "name": "130N",				"theme": 1.0, "libtheme": "CULTURE", "categorie": 107.0}, "geometry": { "type": "Point", "coordinates": [	44.32212557 , 32.03864202 ]}},
{ "type": "Feature", "id": 747 , "properties": { "gid": 747, "___idobj": 3.0, "name": "160N",				"theme": 1.0, "libtheme": "CULTURE", "categorie": 107.0}, "geometry": { "type": "Point", "coordinates": [	44.32020318 , 32.05103894 ]}},
{ "type": "Feature", "id": 748 , "properties": { "gid": 748, "___idobj": 3.0, "name": "170N",				"theme": 1.0, "libtheme": "CULTURE", "categorie": 107.0}, "geometry": { "type": "Point", "coordinates": [	44.31963539 , 32.05578838 ]}},









{ "type": "Feature", "id": 749 , "properties": { "gid": 749, "___idobj": 3.0, "name": "فرودگاه نجف",				"theme": 1.0, "libtheme": "CULTURE", "categorie": 108.0}, "geometry": { "type": "Point", "coordinates": [	44.4043,31.9899 ]}},
{ "type": "Feature", "id": 749 , "properties": { "gid": 749, "___idobj": 3.0, "name": "فرودگاه بغداد",				"theme": 1.0, "libtheme": "CULTURE", "categorie": 108.0}, "geometry": { "type": "Point", "coordinates": [	44.2379,33.2690 ]}},
{ "type": "Feature", "id": 749 , "properties": { "gid": 749, "___idobj": 3.0, "name": "میدان قنطره السلام- توقفگاه ماشین ها به سمت مرزها",				"theme": 1.0, "libtheme": "CULTURE", "categorie": 108.0}, "geometry": { "type": "Point", "coordinates": [	44.05965,32.60615 ]}},
{ "type": "Feature", "id": 749 , "properties": { "gid": 749, "___idobj": 3.0, "name": "گاراژ تعلیب- توقفگاه ماشین های ساماندهی شده به سمت مرزها",				"theme": 1.0, "libtheme": "CULTURE", "categorie": 108.0}, "geometry": { "type": "Point", "coordinates": [	44.00870404,32.61815457 ]}},
{ "type": "Feature", "id": 749 , "properties": { "gid": 749, "___idobj": 3.0, "name": "تقاطع حولی- توقفگاه ماشین های عتبه در برگشت به سمت نجف",				"theme": 1.0, "libtheme": "CULTURE", "categorie": 108.0}, "geometry": { "type": "Point", "coordinates": [	44.05269308,32.56946061 ]}},
{ "type": "Feature", "id": 749 , "properties": { "gid": 749, "___idobj": 3.0, "name": "توقفگاه ماشین های حج و زیارت در برگشت به سمت نجف",				"theme": 1.0, "libtheme": "CULTURE", "categorie": 108.0}, "geometry": { "type": "Point", "coordinates": [	44.10336384,32.53665248 ]}},
{ "type": "Feature", "id": 749 , "properties": { "gid": 749, "___idobj": 3.0, "name": "توقفگاه ماشین ها به سمت مرزها و نجف 3 روز بعد از اربعین",				"theme": 1.0, "libtheme": "CULTURE", "categorie": 108.0}, "geometry": { "type": "Point", "coordinates": [	44.01927841,32.60253141 ]}},
{ "type": "Feature", "id": 749 , "properties": { "gid": 749, "___idobj": 3.0, "name": "توقفگاه ماشین ها به سمت کاظمین و بغداد",				"theme": 1.0, "libtheme": "CULTURE", "categorie": 108.0}, "geometry": { "type": "Point", "coordinates": [	44.04461349,32.6331846 ]}},
{ "type": "Feature", "id": 749 , "properties": { "gid": 749, "___idobj": 3.0, "name": "گاراژ جنوبی - توقفگاه ماشین های شخصی به سمت مرزها و شهرهای جنوبی در کلیه ایام",				"theme": 1.0, "libtheme": "CULTURE", "categorie": 108.0}, "geometry": { "type": "Point", "coordinates": [	44.35126618,31.98127135 ]}},
{ "type": "Feature", "id": 749 , "properties": { "gid": 749, "___idobj": 3.0, "name": "پارکینگ ورودی به نجف- ماشین های عمومی- احتمالی",				"theme": 1.0, "libtheme": "CULTURE", "categorie": 108.0}, "geometry": { "type": "Point", "coordinates": [	44.34451175,31.98461229 ]}},
{ "type": "Feature", "id": 749 , "properties": { "gid": 749, "___idobj": 3.0, "name": "گاراژ داخلی",				"theme": 1.0, "libtheme": "CULTURE", "categorie": 108.0}, "geometry": { "type": "Point", "coordinates": [	44.32879968,32.00229249 ]}},
{ "type": "Feature", "id": 749 , "properties": { "gid": 749, "___idobj": 3.0, "name": "پارکینگ داخلی به کربلا در ایام عادی",				"theme": 1.0, "libtheme": "CULTURE", "categorie": 108.0}, "geometry": { "type": "Point", "coordinates": [	44.31475745,31.99933934 ]}},
{ "type": "Feature", "id": 749 , "properties": { "gid": 749, "___idobj": 3.0, "name": "توقفگاه ماشین ها از کربلا و به کربلا در ایام عادی",				"theme": 1.0, "libtheme": "CULTURE", "categorie": 108.0}, "geometry": { "type": "Point", "coordinates": [	44.30878474,31.99049689 ]}},
{ "type": "Feature", "id": 749 , "properties": { "gid": 749, "___idobj": 3.0, "name": "توقفگاه ماشین ها به نجف و از نجف در ایام عادی",				"theme": 1.0, "libtheme": "CULTURE", "categorie": 108.0}, "geometry": { "type": "Point", "coordinates": [	44.31593556,31.9918562 ]}},
{ "type": "Feature", "id": 749 , "properties": { "gid": 749, "___idobj": 3.0, "name": "گاراژ شمالی - گاراژ اصلی ماشین ها به کربلا و کاظمین و شمال نجف در کلیه ایام",				"theme": 1.0, "libtheme": "CULTURE", "categorie": 108.0}, "geometry": { "type": "Point", "coordinates": [	44.32919727,32.01513264 ]}},
{ "type": "Feature", "id": 749 , "properties": { "gid": 749, "___idobj": 3.0, "name": "گاراژ احیا - پارکینگ ماشین ها به سمت نجف در ایام عادی",				"theme": 1.0, "libtheme": "CULTURE", "categorie": 108.0}, "geometry": { "type": "Point", "coordinates": [	44.02746806,32.61750811 ]}},
{ "type": "Feature", "id": 749 , "properties": { "gid": 749, "___idobj": 3.0, "name": "پارکینگ اصلی کربلا به تمام مسیرها در ایام عادی",				"theme": 1.0, "libtheme": "CULTURE", "categorie": 108.0}, "geometry": { "type": "Point", "coordinates": [	44.03887005,32.60787689 ]}},
{ "type": "Feature", "id": 749 , "properties": { "gid": 749, "___idobj": 3.0, "name": "پارکینگ ماشین ها به مهران و کاظمین در ایام عادی",				"theme": 1.0, "libtheme": "CULTURE", "categorie": 108.0}, "geometry": { "type": "Point", "coordinates": [	44.04236083,32.62200191 ]}},
{ "type": "Feature", "id": 749 , "properties": { "gid": 749, "___idobj": 3.0, "name": "گاراژ سید محمد - پارکینگ ماشین ها به نقاط مختلف در ایام عادی",				"theme": 1.0, "libtheme": "CULTURE", "categorie": 108.0}, "geometry": { "type": "Point", "coordinates": [	44.33355629,33.37743285 ]}},
{ "type": "Feature", "id": 749 , "properties": { "gid": 749, "___idobj": 3.0, "name": "پارکینگ ماشین های حج و زیارت در ایام عادی",				"theme": 1.0, "libtheme": "CULTURE", "categorie": 108.0}, "geometry": { "type": "Point", "coordinates": [	44.34629977,33.38255072 ]}},
{ "type": "Feature", "id": 749 , "properties": { "gid": 749, "___idobj": 3.0, "name": "توقفگاه ماشین های بین مسیر",				"theme": 1.0, "libtheme": "CULTURE", "categorie": 108.0}, "geometry": { "type": "Point", "coordinates": [	44.26424418,32.32579018 ]}},
{ "type": "Feature", "id": 749 , "properties": { "gid": 749, "___idobj": 3.0, "name": "توقفگاه ماشین های بین مسیر",				"theme": 1.0, "libtheme": "CULTURE", "categorie": 108.0}, "geometry": { "type": "Point", "coordinates": [	44.27285793,32.31287901 ]}},
{ "type": "Feature", "id": 749 , "properties": { "gid": 749, "___idobj": 3.0, "name": "محل توقف ماشین ها به سمت کربلا و نجف و .. در ایام غیرعادی",				"theme": 1.0, "libtheme": "CULTURE", "categorie": 108.0}, "geometry": { "type": "Point", "coordinates": [	44.33939277,33.37326762 ]}},
{ "type": "Feature", "id": 749 , "properties": { "gid": 749, "___idobj": 3.0, "name": "توقفگاه ماشین ها به سمت شهرهای زیارتی عراق",				"theme": 1.0, "libtheme": "CULTURE", "categorie": 108.0}, "geometry": { "type": "Point", "coordinates": [	48.02234353,30.50586472 ]}},
{ "type": "Feature", "id": 749 , "properties": { "gid": 749, "___idobj": 3.0, "name": "توقفگاه کوت",				"theme": 1.0, "libtheme": "CULTURE", "categorie": 108.0}, "geometry": { "type": "Point", "coordinates": [	45.78987925,32.52932512 ]}},
{ "type": "Feature", "id": 749 , "properties": { "gid": 749, "___idobj": 3.0, "name": "توقفگاه ماشین ها به سمت شهرهای عراق در ایام عادی",				"theme": 1.0, "libtheme": "CULTURE", "categorie": 108.0}, "geometry": { "type": "Point", "coordinates": [	47.80292111,31.85360039 ]}},
{ "type": "Feature", "id": 749 , "properties": { "gid": 749, "___idobj": 3.0, "name": "توقفگاه عادی",				"theme": 1.0, "libtheme": "CULTURE", "categorie": 108.0}, "geometry": { "type": "Point", "coordinates": [	46.02756392,33.12433418 ]}},