var restaurant500 = {
"type": "FeatureCollection",
                                                                                
"features": [




{ "type": "Feature", "id": 388 , "properties": { "gid": 388, "___idobj": 3.0, "name": "Abitaleb",				"theme": 1.0, "libtheme": "CULTURE", "categorie": 106.0}, "geometry": { "type": "Point", "coordinates": [ 44.31583109,31.99336859]}},
{ "type": "Feature", "id": 388 , "properties": { "gid": 388, "___idobj": 3.0, "name": "Abizar",				"theme": 1.0, "libtheme": "CULTURE", "categorie": 106.0}, "geometry": { "type": "Point", "coordinates": [ 44.31536062,31.99330933]}},
{ "type": "Feature", "id": 388 , "properties": { "gid": 388, "___idobj": 3.0, "name": "Abrar",				"theme": 1.0, "libtheme": "CULTURE", "categorie": 106.0}, "geometry": { "type": "Point", "coordinates": [ 44.31839411,31.99525863]}},
{ "type": "Feature", "id": 388 , "properties": { "gid": 388, "___idobj": 3.0, "name": "Adam",				"theme": 1.0, "libtheme": "CULTURE", "categorie": 106.0}, "geometry": { "type": "Point", "coordinates": [ 44.31573185,31.99370856]}},
{ "type": "Feature", "id": 388 , "properties": { "gid": 388, "___idobj": 3.0, "name": "Akramin",				"theme": 1.0, "libtheme": "CULTURE", "categorie": 106.0}, "geometry": { "type": "Point", "coordinates": [ 44.39129152,32.02536944]}},
{ "type": "Feature", "id": 388 , "properties": { "gid": 388, "___idobj": 3.0, "name": "Al Aragh",				"theme": 1.0, "libtheme": "CULTURE", "categorie": 106.0}, "geometry": { "type": "Point", "coordinates": [ 44.37050323,32.00569075]}},
{ "type": "Feature", "id": 388 , "properties": { "gid": 388, "___idobj": 3.0, "name": "Al Mohamad",				"theme": 1.0, "libtheme": "CULTURE", "categorie": 106.0}, "geometry": { "type": "Point", "coordinates": [ 44.3275236,31.99690651]}},
{ "type": "Feature", "id": 388 , "properties": { "gid": 388, "___idobj": 3.0, "name": "Al Mona",				"theme": 1.0, "libtheme": "CULTURE", "categorie": 106.0}, "geometry": { "type": "Point", "coordinates": [ 44.32742301,32.00897436]}},
{ "type": "Feature", "id": 388 , "properties": { "gid": 388, "___idobj": 3.0, "name": "Alamdar",				"theme": 1.0, "libtheme": "CULTURE", "categorie": 106.0}, "geometry": { "type": "Point", "coordinates": [ 44.31263365,31.99820294]}},
{ "type": "Feature", "id": 388 , "properties": { "gid": 388, "___idobj": 3.0, "name": "AlghadiR",				"theme": 1.0, "libtheme": "CULTURE", "categorie": 106.0}, "geometry": { "type": "Point", "coordinates": [ 44.31512794,31.99768108]}},
{ "type": "Feature", "id": 388 , "properties": { "gid": 388, "___idobj": 3.0, "name": "Alghari",				"theme": 1.0, "libtheme": "CULTURE", "categorie": 106.0}, "geometry": { "type": "Point", "coordinates": [ 44.31856611,31.99769374]}},
{ "type": "Feature", "id": 388 , "properties": { "gid": 388, "___idobj": 3.0, "name": "Alhadi",				"theme": 1.0, "libtheme": "CULTURE", "categorie": 106.0}, "geometry": { "type": "Point", "coordinates": [ 44.31524989,31.99183647]}},
{ "type": "Feature", "id": 388 , "properties": { "gid": 388, "___idobj": 3.0, "name": "Alharam",				"theme": 1.0, "libtheme": "CULTURE", "categorie": 106.0}, "geometry": { "type": "Point", "coordinates": [ 44.3290921,31.99406421]}},
{ "type": "Feature", "id": 388 , "properties": { "gid": 388, "___idobj": 3.0, "name": "Almasshargh",				"theme": 1.0, "libtheme": "CULTURE", "categorie": 106.0}, "geometry": { "type": "Point", "coordinates": [ 44.3235484,31.99245748]}},
{ "type": "Feature", "id": 388 , "properties": { "gid": 388, "___idobj": 3.0, "name": "Almatar",				"theme": 1.0, "libtheme": "CULTURE", "categorie": 106.0}, "geometry": { "type": "Point", "coordinates": [ 44.39473481,32.02463963]}},
{ "type": "Feature", "id": 388 , "properties": { "gid": 388, "___idobj": 3.0, "name": "Amin",				"theme": 1.0, "libtheme": "CULTURE", "categorie": 106.0}, "geometry": { "type": "Point", "coordinates": [ 44.31612136,31.9966543]}},
{ "type": "Feature", "id": 388 , "properties": { "gid": 388, "___idobj": 3.0, "name": "Anvar Baghie",				"theme": 1.0, "libtheme": "CULTURE", "categorie": 106.0}, "geometry": { "type": "Point", "coordinates": [ 44.32164595,31.99224374]}},
{ "type": "Feature", "id": 388 , "properties": { "gid": 388, "___idobj": 3.0, "name": "Anvar Mashhad",				"theme": 1.0, "libtheme": "CULTURE", "categorie": 106.0}, "geometry": { "type": "Point", "coordinates": [ 44.30985463,31.99678539]}},
{ "type": "Feature", "id": 388 , "properties": { "gid": 388, "___idobj": 3.0, "name": "AnvAr Sadegh",				"theme": 1.0, "libtheme": "CULTURE", "categorie": 106.0}, "geometry": { "type": "Point", "coordinates": [ 44.31937538,31.99336004]}},
{ "type": "Feature", "id": 388 , "properties": { "gid": 388, "___idobj": 3.0, "name": "Arz Moghadas",				"theme": 1.0, "libtheme": "CULTURE", "categorie": 106.0}, "geometry": { "type": "Point", "coordinates": [ 44.33163249,32.00434755]}},
{ "type": "Feature", "id": 388 , "properties": { "gid": 388, "___idobj": 3.0, "name": "Asadollah",				"theme": 1.0, "libtheme": "CULTURE", "categorie": 106.0}, "geometry": { "type": "Point", "coordinates": [ 44.31885126,31.9955276]}},
{ "type": "Feature", "id": 388 , "properties": { "gid": 388, "___idobj": 3.0, "name": "Aseme Seghafe",				"theme": 1.0, "libtheme": "CULTURE", "categorie": 106.0}, "geometry": { "type": "Point", "coordinates": [ 44.32202213,31.99028607]}},
{ "type": "Feature", "id": 388 , "properties": { "gid": 388, "___idobj": 3.0, "name": "Atlas",				"theme": 1.0, "libtheme": "CULTURE", "categorie": 106.0}, "geometry": { "type": "Point", "coordinates": [ 44.36686138,32.00376433]}},
{ "type": "Feature", "id": 388 , "properties": { "gid": 388, "___idobj": 3.0, "name": "Baghr",				"theme": 1.0, "libtheme": "CULTURE", "categorie": 106.0}, "geometry": { "type": "Point", "coordinates": [ 44.32271607,31.99420025]}},
{ "type": "Feature", "id": 388 , "properties": { "gid": 388, "___idobj": 3.0, "name": "Bahr Najaf",				"theme": 1.0, "libtheme": "CULTURE", "categorie": 106.0}, "geometry": { "type": "Point", "coordinates": [ 44.34448002,32.00581807]}},
{ "type": "Feature", "id": 388 , "properties": { "gid": 388, "___idobj": 3.0, "name": "Barekat Abas",				"theme": 1.0, "libtheme": "CULTURE", "categorie": 106.0}, "geometry": { "type": "Point", "coordinates": [ 44.31080178,31.99462898]}},
{ "type": "Feature", "id": 388 , "properties": { "gid": 388, "___idobj": 3.0, "name": "Barekat Karim",				"theme": 1.0, "libtheme": "CULTURE", "categorie": 106.0}, "geometry": { "type": "Point", "coordinates": [ 44.36125372,32.01155833]}},
{ "type": "Feature", "id": 388 , "properties": { "gid": 388, "___idobj": 3.0, "name": "Barekat Mortez",				"theme": 1.0, "libtheme": "CULTURE", "categorie": 106.0}, "geometry": { "type": "Point", "coordinates": [ 44.31884028,31.99545166]}},
{ "type": "Feature", "id": 388 , "properties": { "gid": 388, "___idobj": 3.0, "name": "Barekat Ombann",				"theme": 1.0, "libtheme": "CULTURE", "categorie": 106.0}, "geometry": { "type": "Point", "coordinates": [ 44.31472778,31.99392473]}},
{ "type": "Feature", "id": 388 , "properties": { "gid": 388, "___idobj": 3.0, "name": "Beitolbareka",				"theme": 1.0, "libtheme": "CULTURE", "categorie": 106.0}, "geometry": { "type": "Point", "coordinates": [ 44.31116531,31.99708957]}},
{ "type": "Feature", "id": 388 , "properties": { "gid": 388, "___idobj": 3.0, "name": "Boludan",				"theme": 1.0, "libtheme": "CULTURE", "categorie": 106.0}, "geometry": { "type": "Point", "coordinates": [ 44.30990023,31.99662672]}},
{ "type": "Feature", "id": 388 , "properties": { "gid": 388, "___idobj": 3.0, "name": "Borasa",				"theme": 1.0, "libtheme": "CULTURE", "categorie": 106.0}, "geometry": { "type": "Point", "coordinates": [ 44.31262543,31.99825918]}},
{ "type": "Feature", "id": 388 , "properties": { "gid": 388, "___idobj": 3.0, "name": "Borhan",				"theme": 1.0, "libtheme": "CULTURE", "categorie": 106.0}, "geometry": { "type": "Point", "coordinates": [ 44.32122669,31.98932206]}},
{ "type": "Feature", "id": 388 , "properties": { "gid": 388, "___idobj": 3.0, "name": "Borjmenar",				"theme": 1.0, "libtheme": "CULTURE", "categorie": 106.0}, "geometry": { "type": "Point", "coordinates": [ 44.32295118,31.99153706]}},
{ "type": "Feature", "id": 388 , "properties": { "gid": 388, "___idobj": 3.0, "name": "Borjnajaf",				"theme": 1.0, "libtheme": "CULTURE", "categorie": 106.0}, "geometry": { "type": "Point", "coordinates": [ 44.31812698,31.99767396]}},
{ "type": "Feature", "id": 388 , "properties": { "gid": 388, "___idobj": 3.0, "name": "Borjomara",				"theme": 1.0, "libtheme": "CULTURE", "categorie": 106.0}, "geometry": { "type": "Point", "coordinates": [ 44.31895746,31.99625356]}},
{ "type": "Feature", "id": 388 , "properties": { "gid": 388, "___idobj": 3.0, "name": "Dar Rahme",				"theme": 1.0, "libtheme": "CULTURE", "categorie": 106.0}, "geometry": { "type": "Point", "coordinates": [ 44.31795415,31.99252546]}},
{ "type": "Feature", "id": 388 , "properties": { "gid": 388, "___idobj": 3.0, "name": "Darbelal",				"theme": 1.0, "libtheme": "CULTURE", "categorie": 106.0}, "geometry": { "type": "Point", "coordinates": [ 44.31107344,31.99669177]}},
{ "type": "Feature", "id": 388 , "properties": { "gid": 388, "___idobj": 3.0, "name": "Darolhoda",				"theme": 1.0, "libtheme": "CULTURE", "categorie": 106.0}, "geometry": { "type": "Point", "coordinates": [ 44.3313931,31.99989969]}},
{ "type": "Feature", "id": 388 , "properties": { "gid": 388, "___idobj": 3.0, "name": "Darolhoreh",				"theme": 1.0, "libtheme": "CULTURE", "categorie": 106.0}, "geometry": { "type": "Point", "coordinates": [ 44.31211766,31.99629916]}},
{ "type": "Feature", "id": 388 , "properties": { "gid": 388, "___idobj": 3.0, "name": "Darosalam",				"theme": 1.0, "libtheme": "CULTURE", "categorie": 106.0}, "geometry": { "type": "Point", "coordinates": [ 44.31942475,31.99741965]}},
{ "type": "Feature", "id": 388 , "properties": { "gid": 388, "___idobj": 3.0, "name": "Doheh",				"theme": 1.0, "libtheme": "CULTURE", "categorie": 106.0}, "geometry": { "type": "Point", "coordinates": [ 44.32269554,31.99658683]}},
{ "type": "Feature", "id": 388 , "properties": { "gid": 388, "___idobj": 3.0, "name": "Dor Najaf",				"theme": 1.0, "libtheme": "CULTURE", "categorie": 106.0}, "geometry": { "type": "Point", "coordinates": [ 44.33377809,32.00176835]}},
{ "type": "Feature", "id": 388 , "properties": { "gid": 388, "___idobj": 3.0, "name": "Dor Neda",				"theme": 1.0, "libtheme": "CULTURE", "categorie": 106.0}, "geometry": { "type": "Point", "coordinates": [ 44.32253511,31.99703601]}},
{ "type": "Feature", "id": 388 , "properties": { "gid": 388, "___idobj": 3.0, "name": "Dorar",				"theme": 1.0, "libtheme": "CULTURE", "categorie": 106.0}, "geometry": { "type": "Point", "coordinates": [ 44.31826369,31.99284447]}},
{ "type": "Feature", "id": 388 , "properties": { "gid": 388, "___idobj": 3.0, "name": "Doratosalam",				"theme": 1.0, "libtheme": "CULTURE", "categorie": 106.0}, "geometry": { "type": "Point", "coordinates": [ 44.38364287,32.02115536]}},
{ "type": "Feature", "id": 388 , "properties": { "gid": 388, "___idobj": 3.0, "name": "Ebn Ghazi",				"theme": 1.0, "libtheme": "CULTURE", "categorie": 106.0}, "geometry": { "type": "Point", "coordinates": [ 44.32954506,32.00388394]}},
{ "type": "Feature", "id": 388 , "properties": { "gid": 388, "___idobj": 3.0, "name": "Ein Hayat",				"theme": 1.0, "libtheme": "CULTURE", "categorie": 106.0}, "geometry": { "type": "Point", "coordinates": [ 44.33369603,31.995208]}},
{ "type": "Feature", "id": 388 , "properties": { "gid": 388, "___idobj": 3.0, "name": "Ein Salsabil",				"theme": 1.0, "libtheme": "CULTURE", "categorie": 106.0}, "geometry": { "type": "Point", "coordinates": [ 44.32964028,32.00418636]}},
{ "type": "Feature", "id": 388 , "properties": { "gid": 388, "___idobj": 3.0, "name": "Eshtar",				"theme": 1.0, "libtheme": "CULTURE", "categorie": 106.0}, "geometry": { "type": "Point", "coordinates": [ 44.32090893,31.99039972]}},
{ "type": "Feature", "id": 388 , "properties": { "gid": 388, "___idobj": 3.0, "name": "Farghadein 2",				"theme": 1.0, "libtheme": "CULTURE", "categorie": 106.0}, "geometry": { "type": "Point", "coordinates": [ 44.33775036,32.00347206]}},
{ "type": "Feature", "id": 388 , "properties": { "gid": 388, "___idobj": 3.0, "name": "Fatemiyon",				"theme": 1.0, "libtheme": "CULTURE", "categorie": 106.0}, "geometry": { "type": "Point", "coordinates": [ 44.31883274,31.99548352]}},
{ "type": "Feature", "id": 388 , "properties": { "gid": 388, "___idobj": 3.0, "name": "Forghadein",				"theme": 1.0, "libtheme": "CULTURE", "categorie": 106.0}, "geometry": { "type": "Point", "coordinates": [ 44.36526001,32.01300136]}},
{ "type": "Feature", "id": 388 , "properties": { "gid": 388, "___idobj": 3.0, "name": "Fosofl",				"theme": 1.0, "libtheme": "CULTURE", "categorie": 106.0}, "geometry": { "type": "Point", "coordinates": [ 44.32069377,31.99364671]}},
{ "type": "Feature", "id": 388 , "properties": { "gid": 388, "___idobj": 3.0, "name": "Fosul",				"theme": 1.0, "libtheme": "CULTURE", "categorie": 106.0}, "geometry": { "type": "Point", "coordinates": [ 44.32082771,31.99364855]}},
{ "type": "Feature", "id": 388 , "properties": { "gid": 388, "___idobj": 3.0, "name": "G Habib",				"theme": 1.0, "libtheme": "CULTURE", "categorie": 106.0}, "geometry": { "type": "Point", "coordinates": [ 44.32089468,31.99368367]}},
{ "type": "Feature", "id": 388 , "properties": { "gid": 388, "___idobj": 3.0, "name": "Gahsr Tohid",				"theme": 1.0, "libtheme": "CULTURE", "categorie": 106.0}, "geometry": { "type": "Point", "coordinates": [ 44.31265544,31.99657576]}},
{ "type": "Feature", "id": 388 , "properties": { "gid": 388, "___idobj": 3.0, "name": "Gasr Ghasan",				"theme": 1.0, "libtheme": "CULTURE", "categorie": 106.0}, "geometry": { "type": "Point", "coordinates": [ 44.31924353,31.9938348]}},
{ "type": "Feature", "id": 388 , "properties": { "gid": 388, "___idobj": 3.0, "name": "Ghamar Bani Ha",				"theme": 1.0, "libtheme": "CULTURE", "categorie": 106.0}, "geometry": { "type": "Point", "coordinates": [ 44.32684382,31.99282578]}},
{ "type": "Feature", "id": 388 , "properties": { "gid": 388, "___idobj": 3.0, "name": "Ghamr",				"theme": 1.0, "libtheme": "CULTURE", "categorie": 106.0}, "geometry": { "type": "Point", "coordinates": [ 44.31452997,31.99816363]}},
{ "type": "Feature", "id": 388 , "properties": { "gid": 388, "___idobj": 3.0, "name": "Ghased",				"theme": 1.0, "libtheme": "CULTURE", "categorie": 106.0}, "geometry": { "type": "Point", "coordinates": [ 44.31120546,31.99770363]}},
{ "type": "Feature", "id": 388 , "properties": { "gid": 388, "___idobj": 3.0, "name": "Ghasem",				"theme": 1.0, "libtheme": "CULTURE", "categorie": 106.0}, "geometry": { "type": "Point", "coordinates": [ 44.31520128,31.99413948]}},
{ "type": "Feature", "id": 388 , "properties": { "gid": 388, "___idobj": 3.0, "name": "Ghasim",				"theme": 1.0, "libtheme": "CULTURE", "categorie": 106.0}, "geometry": { "type": "Point", "coordinates": [ 44.32386498,31.99599498]}},
{ "type": "Feature", "id": 388 , "properties": { "gid": 388, "___idobj": 3.0, "name": "Ghasn",				"theme": 1.0, "libtheme": "CULTURE", "categorie": 106.0}, "geometry": { "type": "Point", "coordinates": [ 44.31927874,31.99406547]}},
{ "type": "Feature", "id": 388 , "properties": { "gid": 388, "___idobj": 3.0, "name": "Ghasr Abbas",				"theme": 1.0, "libtheme": "CULTURE", "categorie": 106.0}, "geometry": { "type": "Point", "coordinates": [ 44.31089197,31.99493861]}},
{ "type": "Feature", "id": 388 , "properties": { "gid": 388, "___idobj": 3.0, "name": "Ghasr Aye",				"theme": 1.0, "libtheme": "CULTURE", "categorie": 106.0}, "geometry": { "type": "Point", "coordinates": [ 44.32568159,31.99549726]}},
{ "type": "Feature", "id": 388 , "properties": { "gid": 388, "___idobj": 3.0, "name": "Ghasr Badr",				"theme": 1.0, "libtheme": "CULTURE", "categorie": 106.0}, "geometry": { "type": "Point", "coordinates": [ 44.32166683,31.9966714]}},
{ "type": "Feature", "id": 388 , "properties": { "gid": 388, "___idobj": 3.0, "name": "Ghasr Karar",				"theme": 1.0, "libtheme": "CULTURE", "categorie": 106.0}, "geometry": { "type": "Point", "coordinates": [ 44.38328873,32.02104396]}},
{ "type": "Feature", "id": 388 , "properties": { "gid": 388, "___idobj": 3.0, "name": "Ghasr Mola",				"theme": 1.0, "libtheme": "CULTURE", "categorie": 106.0}, "geometry": { "type": "Point", "coordinates": [ 44.31082475,31.99495395]}},
{ "type": "Feature", "id": 388 , "properties": { "gid": 388, "___idobj": 3.0, "name": "Ghasr Mostafa",				"theme": 1.0, "libtheme": "CULTURE", "categorie": 106.0}, "geometry": { "type": "Point", "coordinates": [ 44.31663785,31.99531311]}},
{ "type": "Feature", "id": 388 , "properties": { "gid": 388, "___idobj": 3.0, "name": "Ghasr Oliya",				"theme": 1.0, "libtheme": "CULTURE", "categorie": 106.0}, "geometry": { "type": "Point", "coordinates": [ 44.34920641,32.00731013]}},
{ "type": "Feature", "id": 388 , "properties": { "gid": 388, "___idobj": 3.0, "name": "Ghasr Seyedzei",				"theme": 1.0, "libtheme": "CULTURE", "categorie": 106.0}, "geometry": { "type": "Point", "coordinates": [ 44.31255293,31.99155576]}},
{ "type": "Feature", "id": 388 , "properties": { "gid": 388, "___idobj": 3.0, "name": "Ghasr Soltan",				"theme": 1.0, "libtheme": "CULTURE", "categorie": 106.0}, "geometry": { "type": "Point", "coordinates": [ 44.34704077,31.98406678]}},
{ "type": "Feature", "id": 388 , "properties": { "gid": 388, "___idobj": 3.0, "name": "Ghasr Vali",				"theme": 1.0, "libtheme": "CULTURE", "categorie": 106.0}, "geometry": { "type": "Point", "coordinates": [ 44.31572196,31.99888481]}},
{ "type": "Feature", "id": 388 , "properties": { "gid": 388, "___idobj": 3.0, "name": "Ghasr Zaman",				"theme": 1.0, "libtheme": "CULTURE", "categorie": 106.0}, "geometry": { "type": "Point", "coordinates": [ 44.36925164,32.0144215]}},
{ "type": "Feature", "id": 388 , "properties": { "gid": 388, "___idobj": 3.0, "name": "Ghasrolvard",				"theme": 1.0, "libtheme": "CULTURE", "categorie": 106.0}, "geometry": { "type": "Point", "coordinates": [ 44.3409685,32.00449549]}},
{ "type": "Feature", "id": 388 , "properties": { "gid": 388, "___idobj": 3.0, "name": "Ghasronajm",				"theme": 1.0, "libtheme": "CULTURE", "categorie": 106.0}, "geometry": { "type": "Point", "coordinates": [ 44.32699981,31.99793011]}},
{ "type": "Feature", "id": 388 , "properties": { "gid": 388, "___idobj": 3.0, "name": "Ghasrozjyafe",				"theme": 1.0, "libtheme": "CULTURE", "categorie": 106.0}, "geometry": { "type": "Point", "coordinates": [ 44.31241664,31.99505981]}},
{ "type": "Feature", "id": 388 , "properties": { "gid": 388, "___idobj": 3.0, "name": "Ghasrreza",				"theme": 1.0, "libtheme": "CULTURE", "categorie": 106.0}, "geometry": { "type": "Point", "coordinates": [ 44.33228955,32.00212584]}},
{ "type": "Feature", "id": 388 , "properties": { "gid": 388, "___idobj": 3.0, "name": "Ghasrsaeed",				"theme": 1.0, "libtheme": "CULTURE", "categorie": 106.0}, "geometry": { "type": "Point", "coordinates": [ 44.36201706,32.00274451]}},
{ "type": "Feature", "id": 388 , "properties": { "gid": 388, "___idobj": 3.0, "name": "Ghasrtoosi",				"theme": 1.0, "libtheme": "CULTURE", "categorie": 106.0}, "geometry": { "type": "Point", "coordinates": [ 44.31414147,31.99762534]}},
{ "type": "Feature", "id": 388 , "properties": { "gid": 388, "___idobj": 3.0, "name": "Ghasrzaerin",				"theme": 1.0, "libtheme": "CULTURE", "categorie": 106.0}, "geometry": { "type": "Point", "coordinates": [ 44.32213412,31.99521136]}},
{ "type": "Feature", "id": 388 , "properties": { "gid": 388, "___idobj": 3.0, "name": "Ghebtan",				"theme": 1.0, "libtheme": "CULTURE", "categorie": 106.0}, "geometry": { "type": "Point", "coordinates": [ 44.32237275,31.99060944]}},
{ "type": "Feature", "id": 388 , "properties": { "gid": 388, "___idobj": 3.0, "name": "Ghobab Zahbieh",				"theme": 1.0, "libtheme": "CULTURE", "categorie": 106.0}, "geometry": { "type": "Point", "coordinates": [ 44.31858773,31.9973821]}},
{ "type": "Feature", "id": 388 , "properties": { "gid": 388, "___idobj": 3.0, "name": "Ghobe Baiza",				"theme": 1.0, "libtheme": "CULTURE", "categorie": 106.0}, "geometry": { "type": "Point", "coordinates": [ 44.32639531,31.99536734]}},
{ "type": "Feature", "id": 388 , "properties": { "gid": 388, "___idobj": 3.0, "name": "Ghofran",				"theme": 1.0, "libtheme": "CULTURE", "categorie": 106.0}, "geometry": { "type": "Point", "coordinates": [ 44.3370166,32.00304835]}},
{ "type": "Feature", "id": 388 , "properties": { "gid": 388, "___idobj": 3.0, "name": "Ghsr Omara",				"theme": 1.0, "libtheme": "CULTURE", "categorie": 106.0}, "geometry": { "type": "Point", "coordinates": [ 44.32435649,31.99519937]}},
{ "type": "Feature", "id": 388 , "properties": { "gid": 388, "___idobj": 3.0, "name": "Gobe Beiza",				"theme": 1.0, "libtheme": "CULTURE", "categorie": 106.0}, "geometry": { "type": "Point", "coordinates": [ 44.32646681,31.99544714]}},
{ "type": "Feature", "id": 388 , "properties": { "gid": 388, "___idobj": 3.0, "name": "Hamd",				"theme": 1.0, "libtheme": "CULTURE", "categorie": 106.0}, "geometry": { "type": "Point", "coordinates": [ 44.32714155,32.00918273]}},
{ "type": "Feature", "id": 388 , "properties": { "gid": 388, "___idobj": 3.0, "name": "Hava",				"theme": 1.0, "libtheme": "CULTURE", "categorie": 106.0}, "geometry": { "type": "Point", "coordinates": [ 44.31553756,31.9929495]}},
{ "type": "Feature", "id": 388 , "properties": { "gid": 388, "___idobj": 3.0, "name": "Heisam",				"theme": 1.0, "libtheme": "CULTURE", "categorie": 106.0}, "geometry": { "type": "Point", "coordinates": [ 44.32929243,31.99997144]}},
{ "type": "Feature", "id": 388 , "properties": { "gid": 388, "___idobj": 3.0, "name": "Homam",				"theme": 1.0, "libtheme": "CULTURE", "categorie": 106.0}, "geometry": { "type": "Point", "coordinates": [ 44.32943702,31.99994805]}},
{ "type": "Feature", "id": 388 , "properties": { "gid": 388, "___idobj": 3.0, "name": "Hoveishi",				"theme": 1.0, "libtheme": "CULTURE", "categorie": 106.0}, "geometry": { "type": "Point", "coordinates": [ 44.31718829,31.99648239]}},
{ "type": "Feature", "id": 388 , "properties": { "gid": 388, "___idobj": 3.0, "name": "Jainat Fatemeh",				"theme": 1.0, "libtheme": "CULTURE", "categorie": 106.0}, "geometry": { "type": "Point", "coordinates": [ 44.32550322,31.99301857]}},
{ "type": "Feature", "id": 388 , "properties": { "gid": 388, "___idobj": 3.0, "name": "Janat Ghari",				"theme": 1.0, "libtheme": "CULTURE", "categorie": 106.0}, "geometry": { "type": "Point", "coordinates": [ 44.31510983,31.99394024]}},
{ "type": "Feature", "id": 388 , "properties": { "gid": 388, "___idobj": 3.0, "name": "Janat Khold",				"theme": 1.0, "libtheme": "CULTURE", "categorie": 106.0}, "geometry": { "type": "Point", "coordinates": [ 44.32828358,31.99710868]}},
{ "type": "Feature", "id": 388 , "properties": { "gid": 388, "___idobj": 3.0, "name": "Janat Mostafa",				"theme": 1.0, "libtheme": "CULTURE", "categorie": 106.0}, "geometry": { "type": "Point", "coordinates": [ 44.31820401,31.99274339]}},
{ "type": "Feature", "id": 388 , "properties": { "gid": 388, "___idobj": 3.0, "name": "Janat Reza",				"theme": 1.0, "libtheme": "CULTURE", "categorie": 106.0}, "geometry": { "type": "Point", "coordinates": [ 44.33761692,32.00334163]}},
{ "type": "Feature", "id": 388 , "properties": { "gid": 388, "___idobj": 3.0, "name": "Janat Vahid",				"theme": 1.0, "libtheme": "CULTURE", "categorie": 106.0}, "geometry": { "type": "Point", "coordinates": [ 44.32010771,31.99335099]}},
{ "type": "Feature", "id": 388 , "properties": { "gid": 388, "___idobj": 3.0, "name": "Janatozahra",				"theme": 1.0, "libtheme": "CULTURE", "categorie": 106.0}, "geometry": { "type": "Point", "coordinates": [ 44.31407433,31.99140279]}},
{ "type": "Feature", "id": 388 , "properties": { "gid": 388, "___idobj": 3.0, "name": "Jar Montazar",				"theme": 1.0, "libtheme": "CULTURE", "categorie": 106.0}, "geometry": { "type": "Point", "coordinates": [ 44.38069596,32.03793827]}},
{ "type": "Feature", "id": 388 , "properties": { "gid": 388, "___idobj": 3.0, "name": "Jar Shafi",				"theme": 1.0, "libtheme": "CULTURE", "categorie": 106.0}, "geometry": { "type": "Point", "coordinates": [ 44.31281713,31.99630821]}},
{ "type": "Feature", "id": 388 , "properties": { "gid": 388, "___idobj": 3.0, "name": "Javad",				"theme": 1.0, "libtheme": "CULTURE", "categorie": 106.0}, "geometry": { "type": "Point", "coordinates": [ 44.32014652,31.99370236]}},
{ "type": "Feature", "id": 388 , "properties": { "gid": 388, "___idobj": 3.0, "name": "Johare Najaf",				"theme": 1.0, "libtheme": "CULTURE", "categorie": 106.0}, "geometry": { "type": "Point", "coordinates": [ 44.32056377,31.99381418]}},
{ "type": "Feature", "id": 388 , "properties": { "gid": 388, "___idobj": 3.0, "name": "Johareh Beirut",				"theme": 1.0, "libtheme": "CULTURE", "categorie": 106.0}, "geometry": { "type": "Point", "coordinates": [ 44.33019273,32.00306227]}},
{ "type": "Feature", "id": 388 , "properties": { "gid": 388, "___idobj": 3.0, "name": "Karbalamoghads",				"theme": 1.0, "libtheme": "CULTURE", "categorie": 106.0}, "geometry": { "type": "Point", "coordinates": [ 44.31616805,31.99872857]}},
{ "type": "Feature", "id": 388 , "properties": { "gid": 388, "___idobj": 3.0, "name": "Khadije Kobra",				"theme": 1.0, "libtheme": "CULTURE", "categorie": 106.0}, "geometry": { "type": "Point", "coordinates": [ 44.33096336,31.99433494]}},
{ "type": "Feature", "id": 388 , "properties": { "gid": 388, "___idobj": 3.0, "name": "Kheime",				"theme": 1.0, "libtheme": "CULTURE", "categorie": 106.0}, "geometry": { "type": "Point", "coordinates": [ 44.32028214,32.03129084]}},
{ "type": "Feature", "id": 388 , "properties": { "gid": 388, "___idobj": 3.0, "name": "KHeir",				"theme": 1.0, "libtheme": "CULTURE", "categorie": 106.0}, "geometry": { "type": "Point", "coordinates": [ 44.31618439,31.99208298]}},
{ "type": "Feature", "id": 388 , "properties": { "gid": 388, "___idobj": 3.0, "name": "Kheirat",				"theme": 1.0, "libtheme": "CULTURE", "categorie": 106.0}, "geometry": { "type": "Point", "coordinates": [ 44.34761468,32.0212686]}},
{ "type": "Feature", "id": 388 , "properties": { "gid": 388, "___idobj": 3.0, "name": "Lolonajaf",				"theme": 1.0, "libtheme": "CULTURE", "categorie": 106.0}, "geometry": { "type": "Point", "coordinates": [ 44.31974444,31.99416546]}},
{ "type": "Feature", "id": 388 , "properties": { "gid": 388, "___idobj": 3.0, "name": "Lotf Zahra",				"theme": 1.0, "libtheme": "CULTURE", "categorie": 106.0}, "geometry": { "type": "Point", "coordinates": [ 44.3319049,31.99883494]}},
{ "type": "Feature", "id": 388 , "properties": { "gid": 388, "___idobj": 3.0, "name": "M Ashpaz",				"theme": 1.0, "libtheme": "CULTURE", "categorie": 106.0}, "geometry": { "type": "Point", "coordinates": [ 44.32928581,31.99615063]}},
{ "type": "Feature", "id": 388 , "properties": { "gid": 388, "___idobj": 3.0, "name": "Madine Elm",				"theme": 1.0, "libtheme": "CULTURE", "categorie": 106.0}, "geometry": { "type": "Point", "coordinates": [ 44.31244883,31.99817947]}},
{ "type": "Feature", "id": 388 , "properties": { "gid": 388, "___idobj": 3.0, "name": "Madine Heidari",				"theme": 1.0, "libtheme": "CULTURE", "categorie": 106.0}, "geometry": { "type": "Point", "coordinates": [ 44.32356876,31.99607117]}},
{ "type": "Feature", "id": 388 , "properties": { "gid": 388, "___idobj": 3.0, "name": "Madine Nojum",				"theme": 1.0, "libtheme": "CULTURE", "categorie": 106.0}, "geometry": { "type": "Point", "coordinates": [ 44.35697224,32.00429868]}},
{ "type": "Feature", "id": 388 , "properties": { "gid": 388, "___idobj": 3.0, "name": "Madine Noor",				"theme": 1.0, "libtheme": "CULTURE", "categorie": 106.0}, "geometry": { "type": "Point", "coordinates": [ 44.32879991,31.99448213]}},
{ "type": "Feature", "id": 388 , "properties": { "gid": 388, "___idobj": 3.0, "name": "Majm Bahr Naja",				"theme": 1.0, "libtheme": "CULTURE", "categorie": 106.0}, "geometry": { "type": "Point", "coordinates": [ 44.31290405,31.99131897]}},
{ "type": "Feature", "id": 388 , "properties": { "gid": 388, "___idobj": 3.0, "name": "Majma Zamzam",				"theme": 1.0, "libtheme": "CULTURE", "categorie": 106.0}, "geometry": { "type": "Point", "coordinates": [ 44.30966905,31.99443544]}},
{ "type": "Feature", "id": 388 , "properties": { "gid": 388, "___idobj": 3.0, "name": "Malaz",				"theme": 1.0, "libtheme": "CULTURE", "categorie": 106.0}, "geometry": { "type": "Point", "coordinates": [ 44.3379703,32.00351464]}},
{ "type": "Feature", "id": 388 , "properties": { "gid": 388, "___idobj": 3.0, "name": "Malk",				"theme": 1.0, "libtheme": "CULTURE", "categorie": 106.0}, "geometry": { "type": "Point", "coordinates": [ 44.3110483,31.99332501]}},
{ "type": "Feature", "id": 388 , "properties": { "gid": 388, "___idobj": 3.0, "name": "Mesbah Hoda",				"theme": 1.0, "libtheme": "CULTURE", "categorie": 106.0}, "geometry": { "type": "Point", "coordinates": [ 44.31289516,31.99508035]}},
{ "type": "Feature", "id": 388 , "properties": { "gid": 388, "___idobj": 3.0, "name": "Meshkat",				"theme": 1.0, "libtheme": "CULTURE", "categorie": 106.0}, "geometry": { "type": "Point", "coordinates": [ 44.33893564,32.00382468]}},
{ "type": "Feature", "id": 388 , "properties": { "gid": 388, "___idobj": 3.0, "name": "Mobaheleh",				"theme": 1.0, "libtheme": "CULTURE", "categorie": 106.0}, "geometry": { "type": "Point", "coordinates": [ 44.32212221,31.99677324]}},
{ "type": "Feature", "id": 388 , "properties": { "gid": 388, "___idobj": 3.0, "name": "Mohand",				"theme": 1.0, "libtheme": "CULTURE", "categorie": 106.0}, "geometry": { "type": "Point", "coordinates": [ 44.31173762,31.99750347]}},
{ "type": "Feature", "id": 388 , "properties": { "gid": 388, "___idobj": 3.0, "name": "Mostafa",				"theme": 1.0, "libtheme": "CULTURE", "categorie": 106.0}, "geometry": { "type": "Point", "coordinates": [ 44.3287093,31.99948554]}},
{ "type": "Feature", "id": 388 , "properties": { "gid": 388, "___idobj": 3.0, "name": "Mozif Hosein",				"theme": 1.0, "libtheme": "CULTURE", "categorie": 106.0}, "geometry": { "type": "Point", "coordinates": [ 44.31876736,31.99475504]}},
{ "type": "Feature", "id": 388 , "properties": { "gid": 388, "___idobj": 3.0, "name": "Mozif Hossein",				"theme": 1.0, "libtheme": "CULTURE", "categorie": 106.0}, "geometry": { "type": "Point", "coordinates": [ 44.31897699,31.9947843]}},
{ "type": "Feature", "id": 388 , "properties": { "gid": 388, "___idobj": 3.0, "name": "Mozifol Hasan",				"theme": 1.0, "libtheme": "CULTURE", "categorie": 106.0}, "geometry": { "type": "Point", "coordinates": [ 44.31830811,31.99767178]}},
{ "type": "Feature", "id": 388 , "properties": { "gid": 388, "___idobj": 3.0, "name": "Naba",				"theme": 1.0, "libtheme": "CULTURE", "categorie": 106.0}, "geometry": { "type": "Point", "coordinates": [ 44.32240896,31.99690986]}},
{ "type": "Feature", "id": 388 , "properties": { "gid": 388, "___idobj": 3.0, "name": "Najmo Zahbi",				"theme": 1.0, "libtheme": "CULTURE", "categorie": 106.0}, "geometry": { "type": "Point", "coordinates": [ 44.31761149,31.99668967]}},
{ "type": "Feature", "id": 388 , "properties": { "gid": 388, "___idobj": 3.0, "name": "Narjes",				"theme": 1.0, "libtheme": "CULTURE", "categorie": 106.0}, "geometry": { "type": "Point", "coordinates": [ 44.33296421,32.00187279]}},
{ "type": "Feature", "id": 388 , "properties": { "gid": 388, "___idobj": 3.0, "name": "Naser",				"theme": 1.0, "libtheme": "CULTURE", "categorie": 106.0}, "geometry": { "type": "Point", "coordinates": [ 44.33111424,31.99447576]}},
{ "type": "Feature", "id": 388 , "properties": { "gid": 388, "___idobj": 3.0, "name": "Nasim",				"theme": 1.0, "libtheme": "CULTURE", "categorie": 106.0}, "geometry": { "type": "Point", "coordinates": [ 44.32039177,31.99015019]}},
{ "type": "Feature", "id": 388 , "properties": { "gid": 388, "___idobj": 3.0, "name": "Noor Abas",				"theme": 1.0, "libtheme": "CULTURE", "categorie": 106.0}, "geometry": { "type": "Point", "coordinates": [ 44.31087127,31.9946356]}},
{ "type": "Feature", "id": 388 , "properties": { "gid": 388, "___idobj": 3.0, "name": "Noor Hasanein",				"theme": 1.0, "libtheme": "CULTURE", "categorie": 106.0}, "geometry": { "type": "Point", "coordinates": [ 44.31894598,31.99339625]}},
{ "type": "Feature", "id": 388 , "properties": { "gid": 388, "___idobj": 3.0, "name": "Noor Hosein",				"theme": 1.0, "libtheme": "CULTURE", "categorie": 106.0}, "geometry": { "type": "Point", "coordinates": [ 44.3339562,31.99484666]}},
{ "type": "Feature", "id": 388 , "properties": { "gid": 388, "___idobj": 3.0, "name": "Noor Velaye",				"theme": 1.0, "libtheme": "CULTURE", "categorie": 106.0}, "geometry": { "type": "Point", "coordinates": [ 44.3151944,31.993884]}},
{ "type": "Feature", "id": 388 , "properties": { "gid": 388, "___idobj": 3.0, "name": "Noor Zahra",				"theme": 1.0, "libtheme": "CULTURE", "categorie": 106.0}, "geometry": { "type": "Point", "coordinates": [ 44.33380608,31.99571611]}},
{ "type": "Feature", "id": 388 , "properties": { "gid": 388, "___idobj": 3.0, "name": "Noorshams",				"theme": 1.0, "libtheme": "CULTURE", "categorie": 106.0}, "geometry": { "type": "Point", "coordinates": [ 44.32524338,31.99180109]}},
{ "type": "Feature", "id": 388 , "properties": { "gid": 388, "___idobj": 3.0, "name": "Nor Hasnn",				"theme": 1.0, "libtheme": "CULTURE", "categorie": 106.0}, "geometry": { "type": "Point", "coordinates": [ 44.31887649,31.99342266]}},
{ "type": "Feature", "id": 388 , "properties": { "gid": 388, "___idobj": 3.0, "name": "Omana Rahman",				"theme": 1.0, "libtheme": "CULTURE", "categorie": 106.0}, "geometry": { "type": "Point", "coordinates": [ 44.36688543,32.01437071]}},
{ "type": "Feature", "id": 388 , "properties": { "gid": 388, "___idobj": 3.0, "name": "Omre",				"theme": 1.0, "libtheme": "CULTURE", "categorie": 106.0}, "geometry": { "type": "Point", "coordinates": [ 44.31433501,31.99793883]}},
{ "type": "Feature", "id": 388 , "properties": { "gid": 388, "___idobj": 3.0, "name": "Oyon Malaek",				"theme": 1.0, "libtheme": "CULTURE", "categorie": 106.0}, "geometry": { "type": "Point", "coordinates": [ 44.31984921,31.99426236]}},
{ "type": "Feature", "id": 388 , "properties": { "gid": 388, "___idobj": 3.0, "name": "Raghim",				"theme": 1.0, "libtheme": "CULTURE", "categorie": 106.0}, "geometry": { "type": "Point", "coordinates": [ 44.31130688,31.99320741]}},
{ "type": "Feature", "id": 388 , "properties": { "gid": 388, "___idobj": 3.0, "name": "Raoof",				"theme": 1.0, "libtheme": "CULTURE", "categorie": 106.0}, "geometry": { "type": "Point", "coordinates": [ 44.31827207,31.99671976]}},
{ "type": "Feature", "id": 388 , "properties": { "gid": 388, "___idobj": 3.0, "name": "Rayatheidar",				"theme": 1.0, "libtheme": "CULTURE", "categorie": 106.0}, "geometry": { "type": "Point", "coordinates": [ 44.31956372,31.98978307]}},
{ "type": "Feature", "id": 388 , "properties": { "gid": 388, "___idobj": 3.0, "name": "Raye",				"theme": 1.0, "libtheme": "CULTURE", "categorie": 106.0}, "geometry": { "type": "Point", "coordinates": [ 44.32788326,31.99739635]}},
{ "type": "Feature", "id": 388 , "properties": { "gid": 388, "___idobj": 3.0, "name": "Reihane Mostaf",				"theme": 1.0, "libtheme": "CULTURE", "categorie": 106.0}, "geometry": { "type": "Point", "coordinates": [ 44.31767394,31.99191199]}},
{ "type": "Feature", "id": 388 , "properties": { "gid": 388, "___idobj": 3.0, "name": "Rettaj",				"theme": 1.0, "libtheme": "CULTURE", "categorie": 106.0}, "geometry": { "type": "Point", "coordinates": [ 44.32892899,31.99374435]}},
{ "type": "Feature", "id": 388 , "properties": { "gid": 388, "___idobj": 3.0, "name": "Riyahi",				"theme": 1.0, "libtheme": "CULTURE", "categorie": 106.0}, "geometry": { "type": "Point", "coordinates": [ 44.32303358,31.99575073]}},
{ "type": "Feature", "id": 388 , "properties": { "gid": 388, "___idobj": 3.0, "name": "Rosol",				"theme": 1.0, "libtheme": "CULTURE", "categorie": 106.0}, "geometry": { "type": "Point", "coordinates": [ 44.31279668,31.99489921]}},
{ "type": "Feature", "id": 388 , "properties": { "gid": 388, "___idobj": 3.0, "name": "Roze",				"theme": 1.0, "libtheme": "CULTURE", "categorie": 106.0}, "geometry": { "type": "Point", "coordinates": [ 44.31607266,31.99155802]}},
{ "type": "Feature", "id": 388 , "properties": { "gid": 388, "___idobj": 3.0, "name": "Safa",				"theme": 1.0, "libtheme": "CULTURE", "categorie": 106.0}, "geometry": { "type": "Point", "coordinates": [ 44.33851345,32.00360374]}},
{ "type": "Feature", "id": 388 , "properties": { "gid": 388, "___idobj": 3.0, "name": "Safine Hosein",				"theme": 1.0, "libtheme": "CULTURE", "categorie": 106.0}, "geometry": { "type": "Point", "coordinates": [ 44.32030225,31.99368727]}},
{ "type": "Feature", "id": 388 , "properties": { "gid": 388, "___idobj": 3.0, "name": "Safine Najah",				"theme": 1.0, "libtheme": "CULTURE", "categorie": 106.0}, "geometry": { "type": "Point", "coordinates": [ 44.32494449,31.99192573]}},
{ "type": "Feature", "id": 388 , "properties": { "gid": 388, "___idobj": 3.0, "name": "Saghi",				"theme": 1.0, "libtheme": "CULTURE", "categorie": 106.0}, "geometry": { "type": "Point", "coordinates": [ 44.31167115,31.99776641]}},
{ "type": "Feature", "id": 388 , "properties": { "gid": 388, "___idobj": 3.0, "name": "Salsabil",				"theme": 1.0, "libtheme": "CULTURE", "categorie": 106.0}, "geometry": { "type": "Point", "coordinates": [ 44.39309489,32.02629967]}},
{ "type": "Feature", "id": 388 , "properties": { "gid": 388, "___idobj": 3.0, "name": "Sayer",				"theme": 1.0, "libtheme": "CULTURE", "categorie": 106.0}, "geometry": { "type": "Point", "coordinates": [ 44.33460815,32.0021856]}},
{ "type": "Feature", "id": 388 , "properties": { "gid": 388, "___idobj": 3.0, "name": "Seffein",				"theme": 1.0, "libtheme": "CULTURE", "categorie": 106.0}, "geometry": { "type": "Point", "coordinates": [ 44.32143398,31.99256318]}},
{ "type": "Feature", "id": 388 , "properties": { "gid": 388, "___idobj": 3.0, "name": "Seif Amir",				"theme": 1.0, "libtheme": "CULTURE", "categorie": 106.0}, "geometry": { "type": "Point", "coordinates": [ 44.31901337,31.9942502]}},
{ "type": "Feature", "id": 388 , "properties": { "gid": 388, "___idobj": 3.0, "name": "Shafae",				"theme": 1.0, "libtheme": "CULTURE", "categorie": 106.0}, "geometry": { "type": "Point", "coordinates": [ 44.31579631,31.99361234]}},
{ "type": "Feature", "id": 388 , "properties": { "gid": 388, "___idobj": 3.0, "name": "Shahid Mehrab",				"theme": 1.0, "libtheme": "CULTURE", "categorie": 106.0}, "geometry": { "type": "Point", "coordinates": [ 44.32094984,31.99345954]}},
{ "type": "Feature", "id": 388 , "properties": { "gid": 388, "___idobj": 3.0, "name": "Sharae",				"theme": 1.0, "libtheme": "CULTURE", "categorie": 106.0}, "geometry": { "type": "Point", "coordinates": [ 44.33487318,32.00223447]}},
{ "type": "Feature", "id": 388 , "properties": { "gid": 388, "___idobj": 3.0, "name": "Shomo Ghari",				"theme": 1.0, "libtheme": "CULTURE", "categorie": 106.0}, "geometry": { "type": "Point", "coordinates": [ 44.35936284,32.00100912]}},
{ "type": "Feature", "id": 388 , "properties": { "gid": 388, "___idobj": 3.0, "name": "Soltan",				"theme": 1.0, "libtheme": "CULTURE", "categorie": 106.0}, "geometry": { "type": "Point", "coordinates": [ 44.33273052,31.99724673]}},
{ "type": "Feature", "id": 388 , "properties": { "gid": 388, "___idobj": 3.0, "name": "Tabuk",				"theme": 1.0, "libtheme": "CULTURE", "categorie": 106.0}, "geometry": { "type": "Point", "coordinates": [ 44.32314078,31.99610663]}},
{ "type": "Feature", "id": 388 , "properties": { "gid": 388, "___idobj": 3.0, "name": "Tayebe Najaf",				"theme": 1.0, "libtheme": "CULTURE", "categorie": 106.0}, "geometry": { "type": "Point", "coordinates": [ 44.32933845,32.00445458]}},
{ "type": "Feature", "id": 388 , "properties": { "gid": 388, "___idobj": 3.0, "name": "Teisir",				"theme": 1.0, "libtheme": "CULTURE", "categorie": 106.0}, "geometry": { "type": "Point", "coordinates": [ 44.32201216,31.99074439]}},
{ "type": "Feature", "id": 388 , "properties": { "gid": 388, "___idobj": 3.0, "name": "Toor",				"theme": 1.0, "libtheme": "CULTURE", "categorie": 106.0}, "geometry": { "type": "Point", "coordinates": [ 44.31824533,31.99803153]}},
{ "type": "Feature", "id": 388 , "properties": { "gid": 388, "___idobj": 3.0, "name": "Vadi Aghigh",				"theme": 1.0, "libtheme": "CULTURE", "categorie": 106.0}, "geometry": { "type": "Point", "coordinates": [ 44.33365647,31.99607503]}},
{ "type": "Feature", "id": 388 , "properties": { "gid": 388, "___idobj": 3.0, "name": "Vadi Jamil",				"theme": 1.0, "libtheme": "CULTURE", "categorie": 106.0}, "geometry": { "type": "Point", "coordinates": [ 44.31786999,31.99812516]}},
{ "type": "Feature", "id": 388 , "properties": { "gid": 388, "___idobj": 3.0, "name": "Vadi Moghadas",				"theme": 1.0, "libtheme": "CULTURE", "categorie": 106.0}, "geometry": { "type": "Point", "coordinates": [ 44.32727633,31.99736743]}},
{ "type": "Feature", "id": 388 , "properties": { "gid": 388, "___idobj": 3.0, "name": "Vares",				"theme": 1.0, "libtheme": "CULTURE", "categorie": 106.0}, "geometry": { "type": "Point", "coordinates": [ 44.34005496,32.00417597]}},
{ "type": "Feature", "id": 388 , "properties": { "gid": 388, "___idobj": 3.0, "name": "Velay Ali",				"theme": 1.0, "libtheme": "CULTURE", "categorie": 106.0}, "geometry": { "type": "Point", "coordinates": [ 44.3265632,32.01285434]}},
{ "type": "Feature", "id": 388 , "properties": { "gid": 388, "___idobj": 3.0, "name": "Yasin",				"theme": 1.0, "libtheme": "CULTURE", "categorie": 106.0}, "geometry": { "type": "Point", "coordinates": [ 44.31746791,31.99502553]}},
{ "type": "Feature", "id": 388 , "properties": { "gid": 388, "___idobj": 3.0, "name": "Yosr",				"theme": 1.0, "libtheme": "CULTURE", "categorie": 106.0}, "geometry": { "type": "Point", "coordinates": [ 44.31561803,31.99245933]}},
{ "type": "Feature", "id": 388 , "properties": { "gid": 388, "___idobj": 3.0, "name": "Zahed",				"theme": 1.0, "libtheme": "CULTURE", "categorie": 106.0}, "geometry": { "type": "Point", "coordinates": [ 44.31721092,31.98907153]}},
{ "type": "Feature", "id": 388 , "properties": { "gid": 388, "___idobj": 3.0, "name": "Zamzam",				"theme": 1.0, "libtheme": "CULTURE", "categorie": 106.0}, "geometry": { "type": "Point", "coordinates": [ 44.33185645,32.00165855]}},
{ "type": "Feature", "id": 388 , "properties": { "gid": 388, "___idobj": 3.0, "name": "Zein",				"theme": 1.0, "libtheme": "CULTURE", "categorie": 106.0}, "geometry": { "type": "Point", "coordinates": [ 44.3205092,31.99463158]}},
{ "type": "Feature", "id": 388 , "properties": { "gid": 388, "___idobj": 3.0, "name": "Zohoor",				"theme": 1.0, "libtheme": "CULTURE", "categorie": 106.0}, "geometry": { "type": "Point", "coordinates": [ 44.31846351,31.99546617]}},
{ "type": "Feature", "id": 388 , "properties": { "gid": 388, "___idobj": 3.0, "name": "Zohrenojf",				"theme": 1.0, "libtheme": "CULTURE", "categorie": 106.0}, "geometry": { "type": "Point", "coordinates": [ 44.31612421,31.99873444]}},
{ "type": "Feature", "id": 388 , "properties": { "gid": 388, "___idobj": 3.0, "name": "Zolfaghar",				"theme": 1.0, "libtheme": "CULTURE", "categorie": 106.0}, "geometry": { "type": "Point", "coordinates": [ 44.32260937,31.9967196]}},
{ "type": "Feature", "id": 388 , "properties": { "gid": 388, "___idobj": 3.0, "name": "Zoyof Bagher",				"theme": 1.0, "libtheme": "CULTURE", "categorie": 106.0}, "geometry": { "type": "Point", "coordinates": [ 44.31638975,31.99516006]}},
{ "type": "Feature", "id": 388 , "properties": { "gid": 388, "___idobj": 3.0, "name": "Adan",				"theme": 1.0, "libtheme": "CULTURE", "categorie": 106.0}, "geometry": { "type": "Point", "coordinates": [ 44.0379565,32.61819824]}},
{ "type": "Feature", "id": 388 , "properties": { "gid": 388, "___idobj": 3.0, "name": "Afnan Karbala",				"theme": 1.0, "libtheme": "CULTURE", "categorie": 106.0}, "geometry": { "type": "Point", "coordinates": [ 44.02920412,32.61794443]}},
{ "type": "Feature", "id": 388 , "properties": { "gid": 388, "___idobj": 3.0, "name": "Aghmar Khamseh",				"theme": 1.0, "libtheme": "CULTURE", "categorie": 106.0}, "geometry": { "type": "Point", "coordinates": [ 44.04473369,32.62078162]}},
{ "type": "Feature", "id": 388 , "properties": { "gid": 388, "___idobj": 3.0, "name": "Aghsa",				"theme": 1.0, "libtheme": "CULTURE", "categorie": 106.0}, "geometry": { "type": "Point", "coordinates": [ 44.03565022,32.61396387]}},
{ "type": "Feature", "id": 388 , "properties": { "gid": 388, "___idobj": 3.0, "name": "Ahlebeit Nobov",				"theme": 1.0, "libtheme": "CULTURE", "categorie": 106.0}, "geometry": { "type": "Point", "coordinates": [ 44.03217584,32.62095018]}},
{ "type": "Feature", "id": 388 , "properties": { "gid": 388, "___idobj": 3.0, "name": "Akhavan",				"theme": 1.0, "libtheme": "CULTURE", "categorie": 106.0}, "geometry": { "type": "Point", "coordinates": [ 44.03131695,32.61177225]}},
{ "type": "Feature", "id": 388 , "properties": { "gid": 388, "___idobj": 3.0, "name": "Al Abud",				"theme": 1.0, "libtheme": "CULTURE", "categorie": 106.0}, "geometry": { "type": "Point", "coordinates": [ 44.02243347,32.61572038]}},
{ "type": "Feature", "id": 388 , "properties": { "gid": 388, "___idobj": 3.0, "name": "Alfenar",				"theme": 1.0, "libtheme": "CULTURE", "categorie": 106.0}, "geometry": { "type": "Point", "coordinates": [ 44.0245924,32.6085298]}},
{ "type": "Feature", "id": 388 , "properties": { "gid": 388, "___idobj": 3.0, "name": "Almahdi",				"theme": 1.0, "libtheme": "CULTURE", "categorie": 106.0}, "geometry": { "type": "Point", "coordinates": [ 44.03415321,32.62054986]}},
{ "type": "Feature", "id": 388 , "properties": { "gid": 388, "___idobj": 3.0, "name": "Almizan",				"theme": 1.0, "libtheme": "CULTURE", "categorie": 106.0}, "geometry": { "type": "Point", "coordinates": [ 44.03027843,32.6120574]}},
{ "type": "Feature", "id": 388 , "properties": { "gid": 388, "___idobj": 3.0, "name": "Altome",				"theme": 1.0, "libtheme": "CULTURE", "categorie": 106.0}, "geometry": { "type": "Point", "coordinates": [ 44.03410586,32.61320732]}},
{ "type": "Feature", "id": 388 , "properties": { "gid": 388, "___idobj": 3.0, "name": "Amirat",				"theme": 1.0, "libtheme": "CULTURE", "categorie": 106.0}, "geometry": { "type": "Point", "coordinates": [ 44.03945904,32.60427573]}},
{ "type": "Feature", "id": 388 , "properties": { "gid": 388, "___idobj": 3.0, "name": "Anbari",				"theme": 1.0, "libtheme": "CULTURE", "categorie": 106.0}, "geometry": { "type": "Point", "coordinates": [ 44.03118325,32.61092652]}},
{ "type": "Feature", "id": 388 , "properties": { "gid": 388, "___idobj": 3.0, "name": "Ansar Hosein",				"theme": 1.0, "libtheme": "CULTURE", "categorie": 106.0}, "geometry": { "type": "Point", "coordinates": [ 44.0338596,32.61544562]}},
{ "type": "Feature", "id": 388 , "properties": { "gid": 388, "___idobj": 3.0, "name": "Anvar Baqi",				"theme": 1.0, "libtheme": "CULTURE", "categorie": 106.0}, "geometry": { "type": "Point", "coordinates": [ 44.04259362,32.6165242]}},
{ "type": "Feature", "id": 388 , "properties": { "gid": 388, "___idobj": 3.0, "name": "Anvar Batul",				"theme": 1.0, "libtheme": "CULTURE", "categorie": 106.0}, "geometry": { "type": "Point", "coordinates": [ 44.03759424,32.61227475]}},
{ "type": "Feature", "id": 388 , "properties": { "gid": 388, "___idobj": 3.0, "name": "Anvar Fiha",				"theme": 1.0, "libtheme": "CULTURE", "categorie": 106.0}, "geometry": { "type": "Point", "coordinates": [ 44.03738905,32.6196297]}},
{ "type": "Feature", "id": 388 , "properties": { "gid": 388, "___idobj": 3.0, "name": "Anvar Madine",				"theme": 1.0, "libtheme": "CULTURE", "categorie": 106.0}, "geometry": { "type": "Point", "coordinates": [ 44.03206201,32.6210501]}},
{ "type": "Feature", "id": 388 , "properties": { "gid": 388, "___idobj": 3.0, "name": "Anvar Mighat",				"theme": 1.0, "libtheme": "CULTURE", "categorie": 106.0}, "geometry": { "type": "Point", "coordinates": [ 44.03414651,32.6129738]}},
{ "type": "Feature", "id": 388 , "properties": { "gid": 388, "___idobj": 3.0, "name": "Anvar Rasol",				"theme": 1.0, "libtheme": "CULTURE", "categorie": 106.0}, "geometry": { "type": "Point", "coordinates": [ 44.03518084,32.61577134]}},
{ "type": "Feature", "id": 388 , "properties": { "gid": 388, "___idobj": 3.0, "name": "Anvar Zafaf",				"theme": 1.0, "libtheme": "CULTURE", "categorie": 106.0}, "geometry": { "type": "Point", "coordinates": [ 44.03989591,32.62033897]}},
{ "type": "Feature", "id": 388 , "properties": { "gid": 388, "___idobj": 3.0, "name": "Anvarzahra",				"theme": 1.0, "libtheme": "CULTURE", "categorie": 106.0}, "geometry": { "type": "Point", "coordinates": [ 44.02919314,32.6178415]}},
{ "type": "Feature", "id": 388 , "properties": { "gid": 388, "___idobj": 3.0, "name": "Arz Hosein",				"theme": 1.0, "libtheme": "CULTURE", "categorie": 106.0}, "geometry": { "type": "Point", "coordinates": [ 44.03122843,32.61640526]}},
{ "type": "Feature", "id": 388 , "properties": { "gid": 388, "___idobj": 3.0, "name": "Arz Kheirat",				"theme": 1.0, "libtheme": "CULTURE", "categorie": 106.0}, "geometry": { "type": "Point", "coordinates": [ 44.03797913,32.61692477]}},
{ "type": "Feature", "id": 388 , "properties": { "gid": 388, "___idobj": 3.0, "name": "Asad Feze",				"theme": 1.0, "libtheme": "CULTURE", "categorie": 106.0}, "geometry": { "type": "Point", "coordinates": [ 44.03470801,32.61523004]}},
{ "type": "Feature", "id": 388 , "properties": { "gid": 388, "___idobj": 3.0, "name": "Asadfeze",				"theme": 1.0, "libtheme": "CULTURE", "categorie": 106.0}, "geometry": { "type": "Point", "coordinates": [ 44.03476937,32.61524362]}},
{ "type": "Feature", "id": 388 , "properties": { "gid": 388, "___idobj": 3.0, "name": "Ashab Kesa",				"theme": 1.0, "libtheme": "CULTURE", "categorie": 106.0}, "geometry": { "type": "Point", "coordinates": [ 44.03441356,32.62111757]}},
{ "type": "Feature", "id": 388 , "properties": { "gid": 388, "___idobj": 3.0, "name": "Atlas",				"theme": 1.0, "libtheme": "CULTURE", "categorie": 106.0}, "geometry": { "type": "Point", "coordinates": [ 44.03998358,32.61664683]}},
{ "type": "Feature", "id": 388 , "properties": { "gid": 388, "___idobj": 3.0, "name": "Atraghchi",				"theme": 1.0, "libtheme": "CULTURE", "categorie": 106.0}, "geometry": { "type": "Point", "coordinates": [ 44.03411985,32.61346296]}},
{ "type": "Feature", "id": 388 , "properties": { "gid": 388, "___idobj": 3.0, "name": "Aziz",				"theme": 1.0, "libtheme": "CULTURE", "categorie": 106.0}, "geometry": { "type": "Point", "coordinates": [ 44.03661012,32.61881095]}},
{ "type": "Feature", "id": 388 , "properties": { "gid": 388, "___idobj": 3.0, "name": "Bab Havaej",				"theme": 1.0, "libtheme": "CULTURE", "categorie": 106.0}, "geometry": { "type": "Point", "coordinates": [ 44.03406319,32.61784921]}},
{ "type": "Feature", "id": 388 , "properties": { "gid": 388, "___idobj": 3.0, "name": "Bab Salam",				"theme": 1.0, "libtheme": "CULTURE", "categorie": 106.0}, "geometry": { "type": "Point", "coordinates": [ 44.03300623,32.61672596]}},
{ "type": "Feature", "id": 388 , "properties": { "gid": 388, "___idobj": 3.0, "name": "Babmorad",				"theme": 1.0, "libtheme": "CULTURE", "categorie": 106.0}, "geometry": { "type": "Point", "coordinates": [ 44.03399228,32.61377418]}},
{ "type": "Feature", "id": 388 , "properties": { "gid": 388, "___idobj": 3.0, "name": "Babriyan",				"theme": 1.0, "libtheme": "CULTURE", "categorie": 106.0}, "geometry": { "type": "Point", "coordinates": [ 44.03256836,32.61863996]}},
{ "type": "Feature", "id": 388 , "properties": { "gid": 388, "___idobj": 3.0, "name": "Badr",				"theme": 1.0, "libtheme": "CULTURE", "categorie": 106.0}, "geometry": { "type": "Point", "coordinates": [ 44.03742425,32.61979449]}},
{ "type": "Feature", "id": 388 , "properties": { "gid": 388, "___idobj": 3.0, "name": "Baghdad",				"theme": 1.0, "libtheme": "CULTURE", "categorie": 106.0}, "geometry": { "type": "Point", "coordinates": [ 44.03205724,32.61504346]}},
{ "type": "Feature", "id": 388 , "properties": { "gid": 388, "___idobj": 3.0, "name": "Baghdadi",				"theme": 1.0, "libtheme": "CULTURE", "categorie": 106.0}, "geometry": { "type": "Point", "coordinates": [ 44.03341552,32.61376815]}},
{ "type": "Feature", "id": 388 , "properties": { "gid": 388, "___idobj": 3.0, "name": "Bagher",				"theme": 1.0, "libtheme": "CULTURE", "categorie": 106.0}, "geometry": { "type": "Point", "coordinates": [ 44.03615406,32.61319307]}},
{ "type": "Feature", "id": 388 , "properties": { "gid": 388, "___idobj": 3.0, "name": "Bakat Zeinab",				"theme": 1.0, "libtheme": "CULTURE", "categorie": 106.0}, "geometry": { "type": "Point", "coordinates": [ 44.04226036,32.62328714]}},
{ "type": "Feature", "id": 388 , "properties": { "gid": 388, "___idobj": 3.0, "name": "Balad Amin",				"theme": 1.0, "libtheme": "CULTURE", "categorie": 106.0}, "geometry": { "type": "Point", "coordinates": [ 44.03739617,32.61957455]}},
{ "type": "Feature", "id": 388 , "properties": { "gid": 388, "___idobj": 3.0, "name": "Barekat Bagher",				"theme": 1.0, "libtheme": "CULTURE", "categorie": 106.0}, "geometry": { "type": "Point", "coordinates": [ 44.04100735,32.61789825]}},
{ "type": "Feature", "id": 388 , "properties": { "gid": 388, "___idobj": 3.0, "name": "Barekat Zahra",				"theme": 1.0, "libtheme": "CULTURE", "categorie": 106.0}, "geometry": { "type": "Point", "coordinates": [ 44.0380503,32.6195116]}},
{ "type": "Feature", "id": 388 , "properties": { "gid": 388, "___idobj": 3.0, "name": "Bayaregh Eslam",				"theme": 1.0, "libtheme": "CULTURE", "categorie": 106.0}, "geometry": { "type": "Point", "coordinates": [ 44.03224935,32.6176001]}},
{ "type": "Feature", "id": 388 , "properties": { "gid": 388, "___idobj": 3.0, "name": "Behar Anvar",				"theme": 1.0, "libtheme": "CULTURE", "categorie": 106.0}, "geometry": { "type": "Point", "coordinates": [ 44.02649584,32.61497154]}},
{ "type": "Feature", "id": 388 , "properties": { "gid": 388, "___idobj": 3.0, "name": "Boghae",				"theme": 1.0, "libtheme": "CULTURE", "categorie": 106.0}, "geometry": { "type": "Point", "coordinates": [ 44.0336643,32.62115797]}},
{ "type": "Feature", "id": 388 , "properties": { "gid": 388, "___idobj": 3.0, "name": "Borj Saghalein",				"theme": 1.0, "libtheme": "CULTURE", "categorie": 106.0}, "geometry": { "type": "Point", "coordinates": [ 44.03957915,32.6182207]}},
{ "type": "Feature", "id": 388 , "properties": { "gid": 388, "___idobj": 3.0, "name": "Borjforat",				"theme": 1.0, "libtheme": "CULTURE", "categorie": 106.0}, "geometry": { "type": "Point", "coordinates": [ 44.03357939,32.62254241]}},
{ "type": "Feature", "id": 388 , "properties": { "gid": 388, "___idobj": 3.0, "name": "Borjkarbala",				"theme": 1.0, "libtheme": "CULTURE", "categorie": 106.0}, "geometry": { "type": "Point", "coordinates": [ 44.03796949,32.61858137]}},
{ "type": "Feature", "id": 388 , "properties": { "gid": 388, "___idobj": 3.0, "name": "Dahavi",				"theme": 1.0, "libtheme": "CULTURE", "categorie": 106.0}, "geometry": { "type": "Point", "coordinates": [ 44.02211756,32.61556179]}},
{ "type": "Feature", "id": 388 , "properties": { "gid": 388, "___idobj": 3.0, "name": "Dale",				"theme": 1.0, "libtheme": "CULTURE", "categorie": 106.0}, "geometry": { "type": "Point", "coordinates": [ 44.03637869,32.618632]}},
{ "type": "Feature", "id": 388 , "properties": { "gid": 388, "___idobj": 3.0, "name": "Dast Rast",				"theme": 1.0, "libtheme": "CULTURE", "categorie": 106.0}, "geometry": { "type": "Point", "coordinates": [ 44.03744487,32.61743096]}},
{ "type": "Feature", "id": 388 , "properties": { "gid": 388, "___idobj": 3.0, "name": "Dobei",				"theme": 1.0, "libtheme": "CULTURE", "categorie": 106.0}, "geometry": { "type": "Point", "coordinates": [ 44.03577327,32.61766909]}},
{ "type": "Feature", "id": 388 , "properties": { "gid": 388, "___idobj": 3.0, "name": "Dor Baroodi",				"theme": 1.0, "libtheme": "CULTURE", "categorie": 106.0}, "geometry": { "type": "Point", "coordinates": [ 44.02510277,32.60777853]}},
{ "type": "Feature", "id": 388 , "properties": { "gid": 388, "___idobj": 3.0, "name": "Ebraj Ber",				"theme": 1.0, "libtheme": "CULTURE", "categorie": 106.0}, "geometry": { "type": "Point", "coordinates": [ 44.03297103,32.61186931]}},
{ "type": "Feature", "id": 388 , "properties": { "gid": 388, "___idobj": 3.0, "name": "Ein Haiat",				"theme": 1.0, "libtheme": "CULTURE", "categorie": 106.0}, "geometry": { "type": "Point", "coordinates": [ 44.03555207,32.61120102]}},
{ "type": "Feature", "id": 388 , "properties": { "gid": 388, "___idobj": 3.0, "name": "Fadak 1",				"theme": 1.0, "libtheme": "CULTURE", "categorie": 106.0}, "geometry": { "type": "Point", "coordinates": [ 44.03707062,32.6194867]}},
{ "type": "Feature", "id": 388 , "properties": { "gid": 388, "___idobj": 3.0, "name": "Farghadein",				"theme": 1.0, "libtheme": "CULTURE", "categorie": 106.0}, "geometry": { "type": "Point", "coordinates": [ 44.03324964,32.61906727]}},
{ "type": "Feature", "id": 388 , "properties": { "gid": 388, "___idobj": 3.0, "name": "Fatemeh Bentas",				"theme": 1.0, "libtheme": "CULTURE", "categorie": 106.0}, "geometry": { "type": "Point", "coordinates": [ 44.02374197,32.61020727]}},
{ "type": "Feature", "id": 388 , "properties": { "gid": 388, "___idobj": 3.0, "name": "Fenar",				"theme": 1.0, "libtheme": "CULTURE", "categorie": 106.0}, "geometry": { "type": "Point", "coordinates": [ 44.02459701,32.60865301]}},
{ "type": "Feature", "id": 388 , "properties": { "gid": 388, "___idobj": 3.0, "name": "Fotros",				"theme": 1.0, "libtheme": "CULTURE", "categorie": 106.0}, "geometry": { "type": "Point", "coordinates": [ 44.03129423,32.61394886]}},
{ "type": "Feature", "id": 388 , "properties": { "gid": 388, "___idobj": 3.0, "name": "Ghaem",				"theme": 1.0, "libtheme": "CULTURE", "categorie": 106.0}, "geometry": { "type": "Point", "coordinates": [ 44.03372188,32.61725402]}},
{ "type": "Feature", "id": 388 , "properties": { "gid": 388, "___idobj": 3.0, "name": "Ghamr Alghami",				"theme": 1.0, "libtheme": "CULTURE", "categorie": 106.0}, "geometry": { "type": "Point", "coordinates": [ 44.03860291,32.61694095]}},
{ "type": "Feature", "id": 388 , "properties": { "gid": 388, "___idobj": 3.0, "name": "Ghamr Bani Has",				"theme": 1.0, "libtheme": "CULTURE", "categorie": 106.0}, "geometry": { "type": "Point", "coordinates": [ 44.03560756,32.61379958]}},
{ "type": "Feature", "id": 388 , "properties": { "gid": 388, "___idobj": 3.0, "name": "Ghasagh",				"theme": 1.0, "libtheme": "CULTURE", "categorie": 106.0}, "geometry": { "type": "Point", "coordinates": [ 44.03755392,32.61212639]}},
{ "type": "Feature", "id": 388 , "properties": { "gid": 388, "___idobj": 3.0, "name": "Ghasr Akhzar",				"theme": 1.0, "libtheme": "CULTURE", "categorie": 106.0}, "geometry": { "type": "Point", "coordinates": [ 44.032621,32.62053226]}},
{ "type": "Feature", "id": 388 , "properties": { "gid": 388, "___idobj": 3.0, "name": "Ghasr Alghadir",				"theme": 1.0, "libtheme": "CULTURE", "categorie": 106.0}, "geometry": { "type": "Point", "coordinates": [ 44.03615858,32.61477842]}},
{ "type": "Feature", "id": 388 , "properties": { "gid": 388, "___idobj": 3.0, "name": "Ghasr Javad",				"theme": 1.0, "libtheme": "CULTURE", "categorie": 106.0}, "geometry": { "type": "Point", "coordinates": [ 44.03800973,32.61956801]}},
{ "type": "Feature", "id": 388 , "properties": { "gid": 388, "___idobj": 3.0, "name": "Ghasr Oliya2",				"theme": 1.0, "libtheme": "CULTURE", "categorie": 106.0}, "geometry": { "type": "Point", "coordinates": [ 44.02154993,32.61540614]}},
{ "type": "Feature", "id": 388 , "properties": { "gid": 388, "___idobj": 3.0, "name": "Ghasr Shalal",				"theme": 1.0, "libtheme": "CULTURE", "categorie": 106.0}, "geometry": { "type": "Point", "coordinates": [ 44.03165608,32.61789255]}},
{ "type": "Feature", "id": 388 , "properties": { "gid": 388, "___idobj": 3.0, "name": "Ghasrsoltan",				"theme": 1.0, "libtheme": "CULTURE", "categorie": 106.0}, "geometry": { "type": "Point", "coordinates": [ 44.02494058,32.60807591]}},
{ "type": "Feature", "id": 388 , "properties": { "gid": 388, "___idobj": 3.0, "name": "Ghobatolhosein",				"theme": 1.0, "libtheme": "CULTURE", "categorie": 106.0}, "geometry": { "type": "Point", "coordinates": [ 44.03360789,32.61979667]}},
{ "type": "Feature", "id": 388 , "properties": { "gid": 388, "___idobj": 3.0, "name": "Ghobtan",				"theme": 1.0, "libtheme": "CULTURE", "categorie": 106.0}, "geometry": { "type": "Point", "coordinates": [ 44.03911983,32.61784444]}},
{ "type": "Feature", "id": 388 , "properties": { "gid": 388, "___idobj": 3.0, "name": "Ghods",				"theme": 1.0, "libtheme": "CULTURE", "categorie": 106.0}, "geometry": { "type": "Point", "coordinates": [ 44.04307868,32.61589145]}},
{ "type": "Feature", "id": 388 , "properties": { "gid": 388, "___idobj": 3.0, "name": "Ghorbatol Abas",				"theme": 1.0, "libtheme": "CULTURE", "categorie": 106.0}, "geometry": { "type": "Point", "coordinates": [ 44.0368081,32.61672897]}},
{ "type": "Feature", "id": 388 , "properties": { "gid": 388, "___idobj": 3.0, "name": "Ghoreishi",				"theme": 1.0, "libtheme": "CULTURE", "categorie": 106.0}, "geometry": { "type": "Point", "coordinates": [ 44.02079145,32.61327186]}},
{ "type": "Feature", "id": 388 , "properties": { "gid": 388, "___idobj": 3.0, "name": "Hadavali",				"theme": 1.0, "libtheme": "CULTURE", "categorie": 106.0}, "geometry": { "type": "Point", "coordinates": [ 44.03267364,32.62456153]}},
{ "type": "Feature", "id": 388 , "properties": { "gid": 388, "___idobj": 3.0, "name": "Hamid",				"theme": 1.0, "libtheme": "CULTURE", "categorie": 106.0}, "geometry": { "type": "Point", "coordinates": [ 44.029975,32.61443309]}},
{ "type": "Feature", "id": 388 , "properties": { "gid": 388, "___idobj": 3.0, "name": "Hasanein",				"theme": 1.0, "libtheme": "CULTURE", "categorie": 106.0}, "geometry": { "type": "Point", "coordinates": [ 44.03346665,32.61574645]}},
{ "type": "Feature", "id": 388 , "properties": { "gid": 388, "___idobj": 3.0, "name": "Hasanmojtaba",				"theme": 1.0, "libtheme": "CULTURE", "categorie": 106.0}, "geometry": { "type": "Point", "coordinates": [ 44.03884624,32.60420163]}},
{ "type": "Feature", "id": 388 , "properties": { "gid": 388, "___idobj": 3.0, "name": "Hendavi",				"theme": 1.0, "libtheme": "CULTURE", "categorie": 106.0}, "geometry": { "type": "Point", "coordinates": [ 44.02357768,32.60982857]}},
{ "type": "Feature", "id": 388 , "properties": { "gid": 388, "___idobj": 3.0, "name": "Hilton",				"theme": 1.0, "libtheme": "CULTURE", "categorie": 106.0}, "geometry": { "type": "Point", "coordinates": [ 44.02768716,32.61652487]}},
{ "type": "Feature", "id": 388 , "properties": { "gid": 388, "___idobj": 3.0, "name": "Janat Amir",				"theme": 1.0, "libtheme": "CULTURE", "categorie": 106.0}, "geometry": { "type": "Point", "coordinates": [ 44.02983561,32.61411751]}},
{ "type": "Feature", "id": 388 , "properties": { "gid": 388, "___idobj": 3.0, "name": "Janati",				"theme": 1.0, "libtheme": "CULTURE", "categorie": 106.0}, "geometry": { "type": "Point", "coordinates": [ 44.03678144,32.62004938]}},
{ "type": "Feature", "id": 388 , "properties": { "gid": 388, "___idobj": 3.0, "name": "Janatnaeim",				"theme": 1.0, "libtheme": "CULTURE", "categorie": 106.0}, "geometry": { "type": "Point", "coordinates": [ 44.03868539,32.61219688]}},
{ "type": "Feature", "id": 388 , "properties": { "gid": 388, "___idobj": 3.0, "name": "janato Ale Yasin",				"theme": 1.0, "libtheme": "CULTURE", "categorie": 106.0}, "geometry": { "type": "Point", "coordinates": [ 44.02743721,32.61768317]}},
{ "type": "Feature", "id": 388 , "properties": { "gid": 388, "___idobj": 3.0, "name": "Janatol Mahdi",				"theme": 1.0, "libtheme": "CULTURE", "categorie": 106.0}, "geometry": { "type": "Point", "coordinates": [ 44.04091297,32.61687214]}},
{ "type": "Feature", "id": 388 , "properties": { "gid": 388, "___idobj": 3.0, "name": "Janatozahra2",				"theme": 1.0, "libtheme": "CULTURE", "categorie": 106.0}, "geometry": { "type": "Point", "coordinates": [ 44.03742777,32.61947338]}},
{ "type": "Feature", "id": 388 , "properties": { "gid": 388, "___idobj": 3.0, "name": "Jar Sadeh",				"theme": 1.0, "libtheme": "CULTURE", "categorie": 106.0}, "geometry": { "type": "Point", "coordinates": [ 44.03760304,32.62338957]}},
{ "type": "Feature", "id": 388 , "properties": { "gid": 388, "___idobj": 3.0, "name": "Jarash 1",				"theme": 1.0, "libtheme": "CULTURE", "categorie": 106.0}, "geometry": { "type": "Point", "coordinates": [ 44.03251187,32.60102481]}},
{ "type": "Feature", "id": 388 , "properties": { "gid": 388, "___idobj": 3.0, "name": "K Mogh",				"theme": 1.0, "libtheme": "CULTURE", "categorie": 106.0}, "geometry": { "type": "Point", "coordinates": [ 44.03624509,32.61904213]}},
{ "type": "Feature", "id": 388 , "properties": { "gid": 388, "___idobj": 3.0, "name": "Kafil Zeinab",				"theme": 1.0, "libtheme": "CULTURE", "categorie": 106.0}, "geometry": { "type": "Point", "coordinates": [ 44.02978926,32.61417174]}},
{ "type": "Feature", "id": 388 , "properties": { "gid": 388, "___idobj": 3.0, "name": "Karbala Moghas",				"theme": 1.0, "libtheme": "CULTURE", "categorie": 106.0}, "geometry": { "type": "Point", "coordinates": [ 44.03619496,32.61880869]}},
{ "type": "Feature", "id": 388 , "properties": { "gid": 388, "___idobj": 3.0, "name": "Kerame",				"theme": 1.0, "libtheme": "CULTURE", "categorie": 106.0}, "geometry": { "type": "Point", "coordinates": [ 44.03687155,32.61932502]}},
{ "type": "Feature", "id": 388 , "properties": { "gid": 388, "___idobj": 3.0, "name": "Keristal",				"theme": 1.0, "libtheme": "CULTURE", "categorie": 106.0}, "geometry": { "type": "Point", "coordinates": [ 44.03436251,32.62224225]}},
{ "type": "Feature", "id": 388 , "properties": { "gid": 388, "___idobj": 3.0, "name": "Khalij",				"theme": 1.0, "libtheme": "CULTURE", "categorie": 106.0}, "geometry": { "type": "Point", "coordinates": [ 44.03368056,32.60850197]}},
{ "type": "Feature", "id": 388 , "properties": { "gid": 388, "___idobj": 3.0, "name": "Khodam Hosein",				"theme": 1.0, "libtheme": "CULTURE", "categorie": 106.0}, "geometry": { "type": "Point", "coordinates": [ 44.03952409,32.61851449]}},
{ "type": "Feature", "id": 388 , "properties": { "gid": 388, "___idobj": 3.0, "name": "Kosar Zahra",				"theme": 1.0, "libtheme": "CULTURE", "categorie": 106.0}, "geometry": { "type": "Point", "coordinates": [ 44.03580168,32.61996338]}},
{ "type": "Feature", "id": 388 , "properties": { "gid": 388, "___idobj": 3.0, "name": "Lolo Sabah",				"theme": 1.0, "libtheme": "CULTURE", "categorie": 106.0}, "geometry": { "type": "Point", "coordinates": [ 44.0246328,32.61112064]}},
{ "type": "Feature", "id": 388 , "properties": { "gid": 388, "___idobj": 3.0, "name": "Maiali",				"theme": 1.0, "libtheme": "CULTURE", "categorie": 106.0}, "geometry": { "type": "Point", "coordinates": [ 44.03760036,32.62044559]}},
{ "type": "Feature", "id": 388 , "properties": { "gid": 388, "___idobj": 3.0, "name": "Manar",				"theme": 1.0, "libtheme": "CULTURE", "categorie": 106.0}, "geometry": { "type": "Point", "coordinates": [ 44.03591995,32.61414668]}},
{ "type": "Feature", "id": 388 , "properties": { "gid": 388, "___idobj": 3.0, "name": "Manarhosein",				"theme": 1.0, "libtheme": "CULTURE", "categorie": 106.0}, "geometry": { "type": "Point", "coordinates": [ 44.03191675,32.60014337]}},
{ "type": "Feature", "id": 388 , "properties": { "gid": 388, "___idobj": 3.0, "name": "Mansoor",				"theme": 1.0, "libtheme": "CULTURE", "categorie": 106.0}, "geometry": { "type": "Point", "coordinates": [ 44.03590629,32.61500943]}},
{ "type": "Feature", "id": 388 , "properties": { "gid": 388, "___idobj": 3.0, "name": "Maraj Bahrein",				"theme": 1.0, "libtheme": "CULTURE", "categorie": 106.0}, "geometry": { "type": "Point", "coordinates": [ 44.03928738,32.61786665]}},
{ "type": "Feature", "id": 388 , "properties": { "gid": 388, "___idobj": 3.0, "name": "Mashala",				"theme": 1.0, "libtheme": "CULTURE", "categorie": 106.0}, "geometry": { "type": "Point", "coordinates": [ 44.03413335,32.6156317]}},
{ "type": "Feature", "id": 388 , "properties": { "gid": 388, "___idobj": 3.0, "name": "Meisam",				"theme": 1.0, "libtheme": "CULTURE", "categorie": 106.0}, "geometry": { "type": "Point", "coordinates": [ 44.04230135,32.62409046]}},
{ "type": "Feature", "id": 388 , "properties": { "gid": 388, "___idobj": 3.0, "name": "Menhal",				"theme": 1.0, "libtheme": "CULTURE", "categorie": 106.0}, "geometry": { "type": "Point", "coordinates": [ 44.04211594,32.61662093]}},
{ "type": "Feature", "id": 388 , "properties": { "gid": 388, "___idobj": 3.0, "name": "Mohje",				"theme": 1.0, "libtheme": "CULTURE", "categorie": 106.0}, "geometry": { "type": "Point", "coordinates": [ 44.02104861,32.61577729]}},
{ "type": "Feature", "id": 388 , "properties": { "gid": 388, "___idobj": 3.0, "name": "Mojama Janatal",				"theme": 1.0, "libtheme": "CULTURE", "categorie": 106.0}, "geometry": { "type": "Point", "coordinates": [ 44.04453697,32.62481558]}},
{ "type": "Feature", "id": 388 , "properties": { "gid": 388, "___idobj": 3.0, "name": "Moslem Ebn Agh",				"theme": 1.0, "libtheme": "CULTURE", "categorie": 106.0}, "geometry": { "type": "Point", "coordinates": [ 44.03600503,32.61396931]}},
{ "type": "Feature", "id": 388 , "properties": { "gid": 388, "___idobj": 3.0, "name": "Nabahayat",				"theme": 1.0, "libtheme": "CULTURE", "categorie": 106.0}, "geometry": { "type": "Point", "coordinates": [ 44.0302169,32.61147444]}},
{ "type": "Feature", "id": 388 , "properties": { "gid": 388, "___idobj": 3.0, "name": "Nahr Jane",				"theme": 1.0, "libtheme": "CULTURE", "categorie": 106.0}, "geometry": { "type": "Point", "coordinates": [ 44.04074835,32.62159551]}},
{ "type": "Feature", "id": 388 , "properties": { "gid": 388, "___idobj": 3.0, "name": "Noor Badie",				"theme": 1.0, "libtheme": "CULTURE", "categorie": 106.0}, "geometry": { "type": "Point", "coordinates": [ 44.03641809,32.61214801]}},
{ "type": "Feature", "id": 388 , "properties": { "gid": 388, "___idobj": 3.0, "name": "Noor Bareka",				"theme": 1.0, "libtheme": "CULTURE", "categorie": 106.0}, "geometry": { "type": "Point", "coordinates": [ 44.03503491,32.61548392]}},
{ "type": "Feature", "id": 388 , "properties": { "gid": 388, "___idobj": 3.0, "name": "Noor Haramein",				"theme": 1.0, "libtheme": "CULTURE", "categorie": 106.0}, "geometry": { "type": "Point", "coordinates": [ 44.03888262,32.61569842]}},
{ "type": "Feature", "id": 388 , "properties": { "gid": 388, "___idobj": 3.0, "name": "Noor Mohamad",				"theme": 1.0, "libtheme": "CULTURE", "categorie": 106.0}, "geometry": { "type": "Point", "coordinates": [ 44.0336524,32.62016321]}},
{ "type": "Feature", "id": 388 , "properties": { "gid": 388, "___idobj": 3.0, "name": "Noorbaake",				"theme": 1.0, "libtheme": "CULTURE", "categorie": 106.0}, "geometry": { "type": "Point", "coordinates": [ 44.0349013,32.61529265]}},
{ "type": "Feature", "id": 388 , "properties": { "gid": 388, "___idobj": 3.0, "name": "Oladrasool",				"theme": 1.0, "libtheme": "CULTURE", "categorie": 106.0}, "geometry": { "type": "Point", "coordinates": [ 44.02020413,32.61349582]}},
{ "type": "Feature", "id": 388 , "properties": { "gid": 388, "___idobj": 3.0, "name": "Rasool",				"theme": 1.0, "libtheme": "CULTURE", "categorie": 106.0}, "geometry": { "type": "Point", "coordinates": [ 44.03681128,32.61767873]}},
{ "type": "Feature", "id": 388 , "properties": { "gid": 388, "___idobj": 3.0, "name": "Rayat",				"theme": 1.0, "libtheme": "CULTURE", "categorie": 106.0}, "geometry": { "type": "Point", "coordinates": [ 44.02921979,32.61776858]}},
{ "type": "Feature", "id": 388 , "properties": { "gid": 388, "___idobj": 3.0, "name": "Raye",				"theme": 1.0, "libtheme": "CULTURE", "categorie": 106.0}, "geometry": { "type": "Point", "coordinates": [ 44.03160553,32.61274313]}},
{ "type": "Feature", "id": 388 , "properties": { "gid": 388, "___idobj": 3.0, "name": "Retaj",				"theme": 1.0, "libtheme": "CULTURE", "categorie": 106.0}, "geometry": { "type": "Point", "coordinates": [ 44.03967597,32.61958435]}},
{ "type": "Feature", "id": 388 , "properties": { "gid": 388, "___idobj": 3.0, "name": "Rjihane Rasul",				"theme": 1.0, "libtheme": "CULTURE", "categorie": 106.0}, "geometry": { "type": "Point", "coordinates": [ 44.02862887,32.6135612]}},
{ "type": "Feature", "id": 388 , "properties": { "gid": 388, "___idobj": 3.0, "name": "Rokn Htim",				"theme": 1.0, "libtheme": "CULTURE", "categorie": 106.0}, "geometry": { "type": "Point", "coordinates": [ 44.03912486,32.6215277]}},
{ "type": "Feature", "id": 388 , "properties": { "gid": 388, "___idobj": 3.0, "name": "Roknbostan",				"theme": 1.0, "libtheme": "CULTURE", "categorie": 106.0}, "geometry": { "type": "Point", "coordinates": [ 44.04224636,32.62356467]}},
{ "type": "Feature", "id": 388 , "properties": { "gid": 388, "___idobj": 3.0, "name": "roze Kheirat",				"theme": 1.0, "libtheme": "CULTURE", "categorie": 106.0}, "geometry": { "type": "Point", "coordinates": [ 44.03203025,32.61448204]}},
{ "type": "Feature", "id": 388 , "properties": { "gid": 388, "___idobj": 3.0, "name": "Safar",				"theme": 1.0, "libtheme": "CULTURE", "categorie": 106.0}, "geometry": { "type": "Point", "coordinates": [ 44.04155754,32.61734345]}},
{ "type": "Feature", "id": 388 , "properties": { "gid": 388, "___idobj": 3.0, "name": "Safine",				"theme": 1.0, "libtheme": "CULTURE", "categorie": 106.0}, "geometry": { "type": "Point", "coordinates": [ 44.03957186,32.61775517]}},
{ "type": "Feature", "id": 388 , "properties": { "gid": 388, "___idobj": 3.0, "name": "Safir Hosein",				"theme": 1.0, "libtheme": "CULTURE", "categorie": 106.0}, "geometry": { "type": "Point", "coordinates": [ 44.0359311,32.61520833]}},
{ "type": "Feature", "id": 388 , "properties": { "gid": 388, "___idobj": 3.0, "name": "Safir Karbala",				"theme": 1.0, "libtheme": "CULTURE", "categorie": 106.0}, "geometry": { "type": "Point", "coordinates": [ 44.03223527,32.62065941]}},
{ "type": "Feature", "id": 388 , "properties": { "gid": 388, "___idobj": 3.0, "name": "Safirhoja",				"theme": 1.0, "libtheme": "CULTURE", "categorie": 106.0}, "geometry": { "type": "Point", "coordinates": [ 44.03590092,32.61869445]}},
{ "type": "Feature", "id": 388 , "properties": { "gid": 388, "___idobj": 3.0, "name": "Saghalein",				"theme": 1.0, "libtheme": "CULTURE", "categorie": 106.0}, "geometry": { "type": "Point", "coordinates": [ 44.03329181,32.61418892]}},
{ "type": "Feature", "id": 388 , "properties": { "gid": 388, "___idobj": 3.0, "name": "Saghi 2",				"theme": 1.0, "libtheme": "CULTURE", "categorie": 106.0}, "geometry": { "type": "Point", "coordinates": [ 44.03716039,32.61809472]}},
{ "type": "Feature", "id": 388 , "properties": { "gid": 388, "___idobj": 3.0, "name": "Sare",				"theme": 1.0, "libtheme": "CULTURE", "categorie": 106.0}, "geometry": { "type": "Point", "coordinates": [ 44.03226309,32.6219198]}},
{ "type": "Feature", "id": 388 , "properties": { "gid": 388, "___idobj": 3.0, "name": "Sareh",				"theme": 1.0, "libtheme": "CULTURE", "categorie": 106.0}, "geometry": { "type": "Point", "coordinates": [ 44.03224834,32.62196749]}},
{ "type": "Feature", "id": 388 , "properties": { "gid": 388, "___idobj": 3.0, "name": "Sedre Montaha",				"theme": 1.0, "libtheme": "CULTURE", "categorie": 106.0}, "geometry": { "type": "Point", "coordinates": [ 44.03393352,32.62020696]}},
{ "type": "Feature", "id": 388 , "properties": { "gid": 388, "___idobj": 3.0, "name": "Shafatol Hosen",				"theme": 1.0, "libtheme": "CULTURE", "categorie": 106.0}, "geometry": { "type": "Point", "coordinates": [ 44.04258038,32.62028541]}},
{ "type": "Feature", "id": 388 , "properties": { "gid": 388, "___idobj": 3.0, "name": "Shargh Osat",				"theme": 1.0, "libtheme": "CULTURE", "categorie": 106.0}, "geometry": { "type": "Point", "coordinates": [ 44.04037066,32.61908831]}},
{ "type": "Feature", "id": 388 , "properties": { "gid": 388, "___idobj": 3.0, "name": "Sharghe",				"theme": 1.0, "libtheme": "CULTURE", "categorie": 106.0}, "geometry": { "type": "Point", "coordinates": [ 44.03369933,32.61733674]}},
{ "type": "Feature", "id": 388 , "properties": { "gid": 388, "___idobj": 3.0, "name": "Shati Forat",				"theme": 1.0, "libtheme": "CULTURE", "categorie": 106.0}, "geometry": { "type": "Point", "coordinates": [ 44.03756859,32.61874951]}},
{ "type": "Feature", "id": 388 , "properties": { "gid": 388, "___idobj": 3.0, "name": "Tabarak Rahman",				"theme": 1.0, "libtheme": "CULTURE", "categorie": 106.0}, "geometry": { "type": "Point", "coordinates": [ 44.02956747,32.61642119]}},
{ "type": "Feature", "id": 388 , "properties": { "gid": 388, "___idobj": 3.0, "name": "Tofuf",				"theme": 1.0, "libtheme": "CULTURE", "categorie": 106.0}, "geometry": { "type": "Point", "coordinates": [ 44.03776657,32.61911731]}},
{ "type": "Feature", "id": 388 , "properties": { "gid": 388, "___idobj": 3.0, "name": "Toras",				"theme": 1.0, "libtheme": "CULTURE", "categorie": 106.0}, "geometry": { "type": "Point", "coordinates": [ 44.04202826,32.6190433]}},
{ "type": "Feature", "id": 388 , "properties": { "gid": 388, "___idobj": 3.0, "name": "Vafa Abas",				"theme": 1.0, "libtheme": "CULTURE", "categorie": 106.0}, "geometry": { "type": "Point", "coordinates": [ 44.03306114,32.61078042]}},
{ "type": "Feature", "id": 388 , "properties": { "gid": 388, "___idobj": 3.0, "name": "Vahe Khairat",				"theme": 1.0, "libtheme": "CULTURE", "categorie": 106.0}, "geometry": { "type": "Point", "coordinates": [ 44.04001895,32.61686811]}},
{ "type": "Feature", "id": 388 , "properties": { "gid": 388, "___idobj": 3.0, "name": "Vali",				"theme": 1.0, "libtheme": "CULTURE", "categorie": 106.0}, "geometry": { "type": "Point", "coordinates": [ 44.03269434,32.6246109]}},
{ "type": "Feature", "id": 388 , "properties": { "gid": 388, "___idobj": 3.0, "name": "Valiasr",				"theme": 1.0, "libtheme": "CULTURE", "categorie": 106.0}, "geometry": { "type": "Point", "coordinates": [ 44.04233378,32.61924908]}},
{ "type": "Feature", "id": 388 , "properties": { "gid": 388, "___idobj": 3.0, "name": "Valid",				"theme": 1.0, "libtheme": "CULTURE", "categorie": 106.0}, "geometry": { "type": "Point", "coordinates": [ 44.03732501,32.62020134]}},
{ "type": "Feature", "id": 388 , "properties": { "gid": 388, "___idobj": 3.0, "name": "Yanabie Karbal",				"theme": 1.0, "libtheme": "CULTURE", "categorie": 106.0}, "geometry": { "type": "Point", "coordinates": [ 44.04235072,32.61231582]}},
{ "type": "Feature", "id": 388 , "properties": { "gid": 388, "___idobj": 3.0, "name": "Yasamin",				"theme": 1.0, "libtheme": "CULTURE", "categorie": 106.0}, "geometry": { "type": "Point", "coordinates": [ 44.02951274,32.61079031]}},
{ "type": "Feature", "id": 388 , "properties": { "gid": 388, "___idobj": 3.0, "name": "Z Mousavi",				"theme": 1.0, "libtheme": "CULTURE", "categorie": 106.0}, "geometry": { "type": "Point", "coordinates": [ 44.03210166,32.62093518]}},
{ "type": "Feature", "id": 388 , "properties": { "gid": 388, "___idobj": 3.0, "name": "Zaer Abolfazl",				"theme": 1.0, "libtheme": "CULTURE", "categorie": 106.0}, "geometry": { "type": "Point", "coordinates": [ 44.03610636,32.6156835]}},
{ "type": "Feature", "id": 388 , "properties": { "gid": 388, "___idobj": 3.0, "name": "Zaer Hosein",				"theme": 1.0, "libtheme": "CULTURE", "categorie": 106.0}, "geometry": { "type": "Point", "coordinates": [ 44.03553262,32.61306172]}},
{ "type": "Feature", "id": 388 , "properties": { "gid": 388, "___idobj": 3.0, "name": "Zafaf",				"theme": 1.0, "libtheme": "CULTURE", "categorie": 106.0}, "geometry": { "type": "Point", "coordinates": [ 44.03979499,32.62132913]}},
{ "type": "Feature", "id": 388 , "properties": { "gid": 388, "___idobj": 3.0, "name": "Zamzam",				"theme": 1.0, "libtheme": "CULTURE", "categorie": 106.0}, "geometry": { "type": "Point", "coordinates": [ 44.03690281,32.61296994]}},
{ "type": "Feature", "id": 388 , "properties": { "gid": 388, "___idobj": 3.0, "name": "Zomorod",				"theme": 1.0, "libtheme": "CULTURE", "categorie": 106.0}, "geometry": { "type": "Point", "coordinates": [ 44.03420493,32.61255403]}},
{ "type": "Feature", "id": 388 , "properties": { "gid": 388, "___idobj": 3.0, "name": "Zouf Amir",				"theme": 1.0, "libtheme": "CULTURE", "categorie": 106.0}, "geometry": { "type": "Point", "coordinates": [ 44.03326515,32.61386245]}},
{ "type": "Feature", "id": 388 , "properties": { "gid": 388, "___idobj": 3.0, "name": "Zouof Om Banin",				"theme": 1.0, "libtheme": "CULTURE", "categorie": 106.0}, "geometry": { "type": "Point", "coordinates": [ 44.0343185,32.62091087]}},
{ "type": "Feature", "id": 388 , "properties": { "gid": 388, "___idobj": 3.0, "name": "Zoyof Bagher",				"theme": 1.0, "libtheme": "CULTURE", "categorie": 106.0}, "geometry": { "type": "Point", "coordinates": [ 44.04349753,32.63270555]}},
{ "type": "Feature", "id": 388 , "properties": { "gid": 388, "___idobj": 3.0, "name": "Zoyof Hosein",				"theme": 1.0, "libtheme": "CULTURE", "categorie": 106.0}, "geometry": { "type": "Point", "coordinates": [ 44.02179049,32.6038589]}},
{ "type": "Feature", "id": 388 , "properties": { "gid": 388, "___idobj": 3.0, "name": "Zoyof Zahra",				"theme": 1.0, "libtheme": "CULTURE", "categorie": 106.0}, "geometry": { "type": "Point", "coordinates": [ 44.03615909,32.61574293]}},
{ "type": "Feature", "id": 388 , "properties": { "gid": 388, "___idobj": 3.0, "name": "Zoyoof Rahman",				"theme": 1.0, "libtheme": "CULTURE", "categorie": 106.0}, "geometry": { "type": "Point", "coordinates": [ 44.03110044,32.6104754]}},







{ "type": "Feature", "id": 601 , "properties": { "gid": 601, "___idobj": 3.0, "name": "Holy Shrine of Imam Hussain a.s",				"theme": 1.0, "libtheme": "CULTURE", "categorie": 101.0}, "geometry": { "type": "Point", "coordinates": [	44.0362,32.6171  ]}},
{ "type": "Feature", "id": 601 , "properties": { "gid": 601, "___idobj": 3.0, "name": "Holy Shrine of Abolfazl a.s",				"theme": 1.0, "libtheme": "CULTURE", "categorie": 101.0}, "geometry": { "type": "Point", "coordinates": [	44.0322,32.6163  ]}},
{ "type": "Feature", "id": 601 , "properties": { "gid": 601, "___idobj": 3.0, "name": "Tomb of Horr ibn Yazid Riahi",				"theme": 1.0, "libtheme": "CULTURE", "categorie": 101.0}, "geometry": { "type": "Point", "coordinates": [	43.9850,32.6510  ]}},
{ "type": "Feature", "id": 601 , "properties": { "gid": 601, "___idobj": 3.0, "name": "Holy Shrine of Amir Almomineen a.s",				"theme": 1.0, "libtheme": "CULTURE", "categorie": 101.0}, "geometry": { "type": "Point", "coordinates": [	44.3146,31.9958  ]}},
{ "type": "Feature", "id": 601 , "properties": { "gid": 601, "___idobj": 3.0, "name": "Kufa Mosque",				"theme": 1.0, "libtheme": "CULTURE", "categorie": 101.0}, "geometry": { "type": "Point", "coordinates": [	44.4008203,32.0288724  ]}},
{ "type": "Feature", "id": 601 , "properties": { "gid": 601, "___idobj": 3.0, "name": "Tomb of Maytham Tammar",				"theme": 1.0, "libtheme": "CULTURE", "categorie": 101.0}, "geometry": { "type": "Point", "coordinates": [	44.3948918,32.02645113  ]}},
{ "type": "Feature", "id": 601 , "properties": { "gid": 601, "___idobj": 3.0, "name": "Sahala Mosque",				"theme": 1.0, "libtheme": "CULTURE", "categorie": 101.0}, "geometry": { "type": "Point", "coordinates": [	44.37993155,32.03892129  ]}},
{ "type": "Feature", "id": 601 , "properties": { "gid": 601, "___idobj": 3.0, "name": "Tomb of Komeyl ",				"theme": 1.0, "libtheme": "CULTURE", "categorie": 101.0}, "geometry": { "type": "Point", "coordinates": [	44.33875302,32.00680564  ]}},
{ "type": "Feature", "id": 601 , "properties": { "gid": 601, "___idobj": 3.0, "name": "Hannana Mosque",				"theme": 1.0, "libtheme": "CULTURE", "categorie": 101.0}, "geometry": { "type": "Point", "coordinates": [	44.33475735,32.0048148  ]}},
{ "type": "Feature", "id": 601 , "properties": { "gid": 601, "___idobj": 3.0, "name": "Tomb of Ayatullah Hakim",				"theme": 1.0, "libtheme": "CULTURE", "categorie": 101.0}, "geometry": { "type": "Point", "coordinates": [	44.3323294,32.00001671  ]}},
{ "type": "Feature", "id": 601 , "properties": { "gid": 601, "___idobj": 3.0, "name": "Safi Safa",				"theme": 1.0, "libtheme": "CULTURE", "categorie": 101.0}, "geometry": { "type": "Point", "coordinates": [	44.30934614,31.99565193  ]}},
{ "type": "Feature", "id": 601 , "properties": { "gid": 601, "___idobj": 3.0, "name": "Tomb of Prophets Hood and Salih a.s",				"theme": 1.0, "libtheme": "CULTURE", "categorie": 101.0}, "geometry": { "type": "Point", "coordinates": [	44.31655901,31.99997219  ]}},
{ "type": "Feature", "id": 601 , "properties": { "gid": 601, "___idobj": 3.0, "name": "Tomb of Ayatullah Qazi",				"theme": 1.0, "libtheme": "CULTURE", "categorie": 101.0}, "geometry": { "type": "Point", "coordinates": [	44.31497449,32.00029956  ]}},
{ "type": "Feature", "id": 601 , "properties": { "gid": 601, "___idobj": 3.0, "name": "Maqam of Imam Zaman a.s. ",				"theme": 1.0, "libtheme": "CULTURE", "categorie": 101.0}, "geometry": { "type": "Point", "coordinates": [	44.31273779,32.001879  ]}},
{ "type": "Feature", "id": 601 , "properties": { "gid": 601, "___idobj": 3.0, "name": "Zaynabiya Hill",				"theme": 1.0, "libtheme": "CULTURE", "categorie": 101.0}, "geometry": { "type": "Point", "coordinates": [	44.03122651,32.61596931  ]}},
{ "type": "Feature", "id": 601 , "properties": { "gid": 601, "___idobj": 3.0, "name": "Tents Places",				"theme": 1.0, "libtheme": "CULTURE", "categorie": 101.0}, "geometry": { "type": "Point", "coordinates": [	44.03079782,32.61445311  ]}},
{ "type": "Feature", "id": 601 , "properties": { "gid": 601, "___idobj": 3.0, "name": "Maqam of Imam Zaman a.s. ",				"theme": 1.0, "libtheme": "CULTURE", "categorie": 101.0}, "geometry": { "type": "Point", "coordinates": [	44.03511867,32.62218719  ]}},
{ "type": "Feature", "id": 601 , "properties": { "gid": 601, "___idobj": 3.0, "name": "Holy Shrines of Imam Musa Kadhim a.s. and Imam Jawad a.s. ",				"theme": 1.0, "libtheme": "CULTURE", "categorie": 101.0}, "geometry": { "type": "Point", "coordinates": [	44.33819831,33.38026985  ]}},





{ "type": "Feature", "id": 619 , "properties": { "gid": 619, "___idobj": 3.0, "name": "1",				"theme": 1.0, "libtheme": "CULTURE", "categorie": 107.0}, "geometry": { "type": "Point", "coordinates": [	44.31901018 , 32.06145077 ]}},
{ "type": "Feature", "id": 620 , "properties": { "gid": 620, "___idobj": 3.0, "name": "10",				"theme": 1.0, "libtheme": "CULTURE", "categorie": 107.0}, "geometry": { "type": "Point", "coordinates": [	44.31917002 , 32.06572127 ]}},
{ "type": "Feature", "id": 621 , "properties": { "gid": 621, "___idobj": 3.0, "name": "17",				"theme": 1.0, "libtheme": "CULTURE", "categorie": 107.0}, "geometry": { "type": "Point", "coordinates": [	44.05813443 , 32.56602625 ]}},
{ "type": "Feature", "id": 622 , "properties": { "gid": 622, "___idobj": 3.0, "name": "18",				"theme": 1.0, "libtheme": "CULTURE", "categorie": 107.0}, "geometry": { "type": "Point", "coordinates": [	44.06516299 , 32.56181929 ]}},
{ "type": "Feature", "id": 623 , "properties": { "gid": 623, "___idobj": 3.0, "name": "20",				"theme": 1.0, "libtheme": "CULTURE", "categorie": 107.0}, "geometry": { "type": "Point", "coordinates": [	44.31957127 , 32.07007835 ]}},
{ "type": "Feature", "id": 624 , "properties": { "gid": 624, "___idobj": 3.0, "name": "30",				"theme": 1.0, "libtheme": "CULTURE", "categorie": 107.0}, "geometry": { "type": "Point", "coordinates": [	44.32001098 , 32.07448689 ]}},
{ "type": "Feature", "id": 625 , "properties": { "gid": 625, "___idobj": 3.0, "name": "40",				"theme": 1.0, "libtheme": "CULTURE", "categorie": 107.0}, "geometry": { "type": "Point", "coordinates": [	44.32054608 , 32.07905754 ]}},
{ "type": "Feature", "id": 626 , "properties": { "gid": 626, "___idobj": 3.0, "name": "50",				"theme": 1.0, "libtheme": "CULTURE", "categorie": 107.0}, "geometry": { "type": "Point", "coordinates": [	44.32090625 , 32.08367882 ]}},
{ "type": "Feature", "id": 627 , "properties": { "gid": 627, "___idobj": 3.0, "name": "60",				"theme": 1.0, "libtheme": "CULTURE", "categorie": 107.0}, "geometry": { "type": "Point", "coordinates": [	44.32131805 , 32.08821528 ]}},
{ "type": "Feature", "id": 628 , "properties": { "gid": 628, "___idobj": 3.0, "name": "70",				"theme": 1.0, "libtheme": "CULTURE", "categorie": 107.0}, "geometry": { "type": "Point", "coordinates": [	44.32174511 , 32.09283102 ]}},
{ "type": "Feature", "id": 629 , "properties": { "gid": 629, "___idobj": 3.0, "name": "80",				"theme": 1.0, "libtheme": "CULTURE", "categorie": 107.0}, "geometry": { "type": "Point", "coordinates": [	44.32186791 , 32.09737049 ]}},
{ "type": "Feature", "id": 630 , "properties": { "gid": 630, "___idobj": 3.0, "name": "90",				"theme": 1.0, "libtheme": "CULTURE", "categorie": 107.0}, "geometry": { "type": "Point", "coordinates": [	44.32260032 , 32.10189178 ]}},
{ "type": "Feature", "id": 631 , "properties": { "gid": 631, "___idobj": 3.0, "name": "100",				"theme": 1.0, "libtheme": "CULTURE", "categorie": 107.0}, "geometry": { "type": "Point", "coordinates": [	44.3232189 , 32.10639998 ]}},
{ "type": "Feature", "id": 632 , "properties": { "gid": 632, "___idobj": 3.0, "name": "110",				"theme": 1.0, "libtheme": "CULTURE", "categorie": 107.0}, "geometry": { "type": "Point", "coordinates": [	44.32370204 , 32.11100039 ]}},
{ "type": "Feature", "id": 633 , "properties": { "gid": 633, "___idobj": 3.0, "name": "120",				"theme": 1.0, "libtheme": "CULTURE", "categorie": 107.0}, "geometry": { "type": "Point", "coordinates": [	44.32390639 , 32.11549787 ]}},
{ "type": "Feature", "id": 634 , "properties": { "gid": 634, "___idobj": 3.0, "name": "130",				"theme": 1.0, "libtheme": "CULTURE", "categorie": 107.0}, "geometry": { "type": "Point", "coordinates": [	44.32449371 , 32.12006198 ]}},
{ "type": "Feature", "id": 635 , "properties": { "gid": 635, "___idobj": 3.0, "name": "140",				"theme": 1.0, "libtheme": "CULTURE", "categorie": 107.0}, "geometry": { "type": "Point", "coordinates": [	44.32385484 , 32.11287609 ]}},
{ "type": "Feature", "id": 636 , "properties": { "gid": 636, "___idobj": 3.0, "name": "141",				"theme": 1.0, "libtheme": "CULTURE", "categorie": 107.0}, "geometry": { "type": "Point", "coordinates": [	44.32304045 , 32.10510691 ]}},
{ "type": "Feature", "id": 637 , "properties": { "gid": 637, "___idobj": 3.0, "name": "142",				"theme": 1.0, "libtheme": "CULTURE", "categorie": 107.0}, "geometry": { "type": "Point", "coordinates": [	44.30733704 , 32.19336273 ]}},
{ "type": "Feature", "id": 638 , "properties": { "gid": 638, "___idobj": 3.0, "name": "143",				"theme": 1.0, "libtheme": "CULTURE", "categorie": 107.0}, "geometry": { "type": "Point", "coordinates": [	44.30094358 , 32.21162824 ]}},
{ "type": "Feature", "id": 639 , "properties": { "gid": 639, "___idobj": 3.0, "name": "144",				"theme": 1.0, "libtheme": "CULTURE", "categorie": 107.0}, "geometry": { "type": "Point", "coordinates": [	44.02465057 , 32.58498092 ]}},
{ "type": "Feature", "id": 640 , "properties": { "gid": 640, "___idobj": 3.0, "name": "150",				"theme": 1.0, "libtheme": "CULTURE", "categorie": 107.0}, "geometry": { "type": "Point", "coordinates": [	44.32526032 , 32.12939951 ]}},
{ "type": "Feature", "id": 641 , "properties": { "gid": 641, "___idobj": 3.0, "name": "160",				"theme": 1.0, "libtheme": "CULTURE", "categorie": 107.0}, "geometry": { "type": "Point", "coordinates": [	44.32570925 , 32.13387561 ]}},
{ "type": "Feature", "id": 642 , "properties": { "gid": 642, "___idobj": 3.0, "name": "170",				"theme": 1.0, "libtheme": "CULTURE", "categorie": 107.0}, "geometry": { "type": "Point", "coordinates": [	44.3260421 , 32.13849714 ]}},
{ "type": "Feature", "id": 643 , "properties": { "gid": 643, "___idobj": 3.0, "name": "180",				"theme": 1.0, "libtheme": "CULTURE", "categorie": 107.0}, "geometry": { "type": "Point", "coordinates": [	44.32501355 , 32.14258038 ]}},
{ "type": "Feature", "id": 644 , "properties": { "gid": 644, "___idobj": 3.0, "name": "190",				"theme": 1.0, "libtheme": "CULTURE", "categorie": 107.0}, "geometry": { "type": "Point", "coordinates": [	44.32329887 , 32.14710326 ]}},
{ "type": "Feature", "id": 645 , "properties": { "gid": 645, "___idobj": 3.0, "name": "195",				"theme": 1.0, "libtheme": "CULTURE", "categorie": 107.0}, "geometry": { "type": "Point", "coordinates": [	44.32315964 , 32.14896471 ]}},
{ "type": "Feature", "id": 646 , "properties": { "gid": 646, "___idobj": 3.0, "name": "200",				"theme": 1.0, "libtheme": "CULTURE", "categorie": 107.0}, "geometry": { "type": "Point", "coordinates": [	44.32204485 , 32.15117209 ]}},
{ "type": "Feature", "id": 647 , "properties": { "gid": 647, "___idobj": 3.0, "name": "210",				"theme": 1.0, "libtheme": "CULTURE", "categorie": 107.0}, "geometry": { "type": "Point", "coordinates": [	44.32039722 , 32.15554912 ]}},
{ "type": "Feature", "id": 648 , "properties": { "gid": 648, "___idobj": 3.0, "name": "220",				"theme": 1.0, "libtheme": "CULTURE", "categorie": 107.0}, "geometry": { "type": "Point", "coordinates": [	44.31861145 , 32.15992246 ]}},
{ "type": "Feature", "id": 649 , "properties": { "gid": 649, "___idobj": 3.0, "name": "230",				"theme": 1.0, "libtheme": "CULTURE", "categorie": 107.0}, "geometry": { "type": "Point", "coordinates": [	44.31721268 , 32.1642528 ]}},
{ "type": "Feature", "id": 650 , "properties": { "gid": 650, "___idobj": 3.0, "name": "244",				"theme": 1.0, "libtheme": "CULTURE", "categorie": 107.0}, "geometry": { "type": "Point", "coordinates": [	44.31516054 , 32.17010069 ]}},
{ "type": "Feature", "id": 651 , "properties": { "gid": 651, "___idobj": 3.0, "name": "247",				"theme": 1.0, "libtheme": "CULTURE", "categorie": 107.0}, "geometry": { "type": "Point", "coordinates": [	44.31449904 , 32.17194512 ]}},
{ "type": "Feature", "id": 652 , "properties": { "gid": 652, "___idobj": 3.0, "name": "250",				"theme": 1.0, "libtheme": "CULTURE", "categorie": 107.0}, "geometry": { "type": "Point", "coordinates": [	44.31384165 , 32.17316084 ]}},
{ "type": "Feature", "id": 653 , "properties": { "gid": 653, "___idobj": 3.0, "name": "257",				"theme": 1.0, "libtheme": "CULTURE", "categorie": 107.0}, "geometry": { "type": "Point", "coordinates": [	44.31298703 , 32.17618972 ]}},
{ "type": "Feature", "id": 654 , "properties": { "gid": 654, "___idobj": 3.0, "name": "260",				"theme": 1.0, "libtheme": "CULTURE", "categorie": 107.0}, "geometry": { "type": "Point", "coordinates": [	44.31229963 , 32.17743821 ]}},
{ "type": "Feature", "id": 655 , "properties": { "gid": 655, "___idobj": 3.0, "name": "270",				"theme": 1.0, "libtheme": "CULTURE", "categorie": 107.0}, "geometry": { "type": "Point", "coordinates": [	44.31087177 , 32.1817481 ]}},
{ "type": "Feature", "id": 656 , "properties": { "gid": 656, "___idobj": 3.0, "name": "280",				"theme": 1.0, "libtheme": "CULTURE", "categorie": 107.0}, "geometry": { "type": "Point", "coordinates": [	44.30919858 , 32.18614424 ]}},
{ "type": "Feature", "id": 657 , "properties": { "gid": 657, "___idobj": 3.0, "name": "290",				"theme": 1.0, "libtheme": "CULTURE", "categorie": 107.0}, "geometry": { "type": "Point", "coordinates": [	44.30880605 , 32.19018951 ]}},
{ "type": "Feature", "id": 658 , "properties": { "gid": 658, "___idobj": 3.0, "name": "300",				"theme": 1.0, "libtheme": "CULTURE", "categorie": 107.0}, "geometry": { "type": "Point", "coordinates": [	44.30660983 , 32.1950076 ]}},
{ "type": "Feature", "id": 659 , "properties": { "gid": 659, "___idobj": 3.0, "name": "313",				"theme": 1.0, "libtheme": "CULTURE", "categorie": 107.0}, "geometry": { "type": "Point", "coordinates": [	44.30534542 , 32.2002882 ]}},
{ "type": "Feature", "id": 660 , "properties": { "gid": 660, "___idobj": 3.0, "name": "330",				"theme": 1.0, "libtheme": "CULTURE", "categorie": 107.0}, "geometry": { "type": "Point", "coordinates": [	44.30220388 , 32.20792897 ]}},
{ "type": "Feature", "id": 661 , "properties": { "gid": 661, "___idobj": 3.0, "name": "340",				"theme": 1.0, "libtheme": "CULTURE", "categorie": 107.0}, "geometry": { "type": "Point", "coordinates": [	44.30054594 , 32.21234506 ]}},
{ "type": "Feature", "id": 662 , "properties": { "gid": 662, "___idobj": 3.0, "name": "350",				"theme": 1.0, "libtheme": "CULTURE", "categorie": 107.0}, "geometry": { "type": "Point", "coordinates": [	44.29940089 , 32.21640131 ]}},
{ "type": "Feature", "id": 663 , "properties": { "gid": 663, "___idobj": 3.0, "name": "360",				"theme": 1.0, "libtheme": "CULTURE", "categorie": 107.0}, "geometry": { "type": "Point", "coordinates": [	44.2975142 , 32.22123398 ]}},
{ "type": "Feature", "id": 664 , "properties": { "gid": 664, "___idobj": 3.0, "name": "367",				"theme": 1.0, "libtheme": "CULTURE", "categorie": 107.0}, "geometry": { "type": "Point", "coordinates": [	44.29684038 , 32.22420621 ]}},
{ "type": "Feature", "id": 665 , "properties": { "gid": 665, "___idobj": 3.0, "name": "370",				"theme": 1.0, "libtheme": "CULTURE", "categorie": 107.0}, "geometry": { "type": "Point", "coordinates": [	44.29613027 , 32.22550339 ]}},
{ "type": "Feature", "id": 666 , "properties": { "gid": 666, "___idobj": 3.0, "name": "380",				"theme": 1.0, "libtheme": "CULTURE", "categorie": 107.0}, "geometry": { "type": "Point", "coordinates": [	44.29490659 , 32.22973726 ]}},
{ "type": "Feature", "id": 667 , "properties": { "gid": 667, "___idobj": 3.0, "name": "390",				"theme": 1.0, "libtheme": "CULTURE", "categorie": 107.0}, "geometry": { "type": "Point", "coordinates": [	44.29322787 , 32.23418042 ]}},
{ "type": "Feature", "id": 668 , "properties": { "gid": 668, "___idobj": 3.0, "name": "400",				"theme": 1.0, "libtheme": "CULTURE", "categorie": 107.0}, "geometry": { "type": "Point", "coordinates": [	44.29175952 , 32.23855779 ]}},
{ "type": "Feature", "id": 669 , "properties": { "gid": 669, "___idobj": 3.0, "name": "410",				"theme": 1.0, "libtheme": "CULTURE", "categorie": 107.0}, "geometry": { "type": "Point", "coordinates": [	44.29026067 , 32.24293582 ]}},
{ "type": "Feature", "id": 670 , "properties": { "gid": 670, "___idobj": 3.0, "name": "430",				"theme": 1.0, "libtheme": "CULTURE", "categorie": 107.0}, "geometry": { "type": "Point", "coordinates": [	44.28727554 , 32.25171654 ]}},
{ "type": "Feature", "id": 671 , "properties": { "gid": 671, "___idobj": 3.0, "name": "440",				"theme": 1.0, "libtheme": "CULTURE", "categorie": 107.0}, "geometry": { "type": "Point", "coordinates": [	44.28575976 , 32.2561198 ]}},
{ "type": "Feature", "id": 672 , "properties": { "gid": 672, "___idobj": 3.0, "name": "455",				"theme": 1.0, "libtheme": "CULTURE", "categorie": 107.0}, "geometry": { "type": "Point", "coordinates": [	44.2840843 , 32.26275642 ]}},
{ "type": "Feature", "id": 673 , "properties": { "gid": 673, "___idobj": 3.0, "name": "460",				"theme": 1.0, "libtheme": "CULTURE", "categorie": 107.0}, "geometry": { "type": "Point", "coordinates": [	44.28347494 , 32.2649317 ]}},
{ "type": "Feature", "id": 674 , "properties": { "gid": 674, "___idobj": 3.0, "name": "480",				"theme": 1.0, "libtheme": "CULTURE", "categorie": 107.0}, "geometry": { "type": "Point", "coordinates": [	44.28172982 , 32.27386806 ]}},
{ "type": "Feature", "id": 675 , "properties": { "gid": 675, "___idobj": 3.0, "name": "490",				"theme": 1.0, "libtheme": "CULTURE", "categorie": 107.0}, "geometry": { "type": "Point", "coordinates": [	44.28103865 , 32.27826186 ]}},
{ "type": "Feature", "id": 676 , "properties": { "gid": 676, "___idobj": 3.0, "name": "500",				"theme": 1.0, "libtheme": "CULTURE", "categorie": 107.0}, "geometry": { "type": "Point", "coordinates": [	44.27999661 , 32.28275171 ]}},
{ "type": "Feature", "id": 677 , "properties": { "gid": 677, "___idobj": 3.0, "name": "510",				"theme": 1.0, "libtheme": "CULTURE", "categorie": 107.0}, "geometry": { "type": "Point", "coordinates": [	44.27909698 , 32.28726159 ]}},
{ "type": "Feature", "id": 678 , "properties": { "gid": 678, "___idobj": 3.0, "name": "530",				"theme": 1.0, "libtheme": "CULTURE", "categorie": 107.0}, "geometry": { "type": "Point", "coordinates": [	44.27671175 , 32.29631865 ]}},